timestamp,ref_timestamp,ref_lat,ref_lon,x,y,z,delta_xy[0],delta_xy[1],delta_z,vx,vy,vz,z_deriv,delta_vxy[0],delta_vxy[1],delta_vz,ax,ay,az,yaw,ref_alt,dist_bottom,dist_bottom_rate,eph,epv,evh,evv,vxy_max,vz_max,hagl_min,hagl_max,xy_valid,z_valid,v_xy_valid,v_z_valid,xy_reset_counter,z_reset_counter,vxy_reset_counter,vz_reset_counter,xy_global,z_global,dist_bottom_valid
1864000,1696000,28.452394800000004,-13.8671276,-2.7375231e-06,1.1868397e-06,-1.572266e-06,-1.3456633e-06,9.890279e-07,0.0,-0.00039191317,-0.0001245384,-0.0007489166,-0.0007503313,-0.00033641583,0.00024725695,0.0,-0.017123993,-0.09398148,-0.1838263,0.40708607,0.0,0.10000157,0.0007489166,0.70622146,2.0000088,7.071068,0.7500069,inf,inf,inf,inf,1,1,1,1,1,0,1,1,1,1,1
1960000,1696000,28.452394800000004,-13.8671276,-6.5846216e-05,-7.897402e-05,0.0005425429,-1.3456633e-06,9.890279e-07,0.0,-0.0007578951,-0.0015987492,-0.015251191,-0.014262909,-0.00033641583,0.00024725695,0.0,-0.047330044,0.006343194,-0.19771884,0.40295675,0.0,0.12464648,0.015251191,0.42634213,0.8952507,5.7642403,0.7500481,inf,inf,inf,inf,1,1,1,1,1,0,1,1,1,1,1
2064000,1696000,28.452394800000004,-13.8671276,-0.00018812013,-0.00025918687,0.007000407,-1.3456633e-06,9.890279e-07,0.0,-0.00059882633,-0.0010472424,-0.03561429,-0.026081938,-0.00033641583,0.00024725695,0.0,0.021355808,0.03216502,-0.06026588,0.40317577,0.0,0.12780924,0.03561429,0.38266578,0.6367973,3.1554708,0.7490848,inf,inf,inf,inf,1,1,1,1,1,0,1,1,1,1,1
2160000,1696000,28.452394800000004,-13.8671276,-0.00016854187,-0.00029764054,0.010224501,-1.3456633e-06,9.890279e-07,0.0,0.0012886504,0.00011107286,-0.052309852,-0.035988674,-0.00033641583,0.00024725695,0.0,0.072396316,0.02339792,-0.1238156,0.40348008,0.0,0.12744851,0.052309852,0.35334107,0.546036,2.002166,0.74653256,inf,inf,inf,inf,1,1,1,1,1,0,1,1,1,1,1
2264000,1696000,28.452394800000004,-13.8671276,3.0789233e-05,-0.00018841316,0.008356703,-1.3456633e-06,9.890279e-07,0.0,0.002556695,0.0010465018,-0.0726043,-0.052324537,-0.00033641583,0.00024725695,0.0,0.061508324,0.12832332,-0.1104772,0.40374723,0.0,0.12931632,0.0726043,0.33364946,0.49583638,1.3940449,0.74172,inf,inf,inf,inf,1,1,1,1,1,0,1,1,1,1,1
2360000,1696000,28.452394800000004,-13.8671276,0.0004917385,0.00015172447,0.002367324,-1.3456633e-06,9.890279e-07,0.0,0.006620862,0.003025932,-0.087033294,-0.065888084,-0.00033641583,0.00024725695,0.0,0.05398932,0.023961954,-0.14346744,0.40423432,0.0,0.1353057,0.087033294,0.28297383,0.45422718,0.9797617,0.7308938,inf,inf,inf,inf,1,1,1,1,1,0,1,1,1,1,1
2464000,1696000,28.452394800000004,-13.8671276,0.0016484903,0.00040823146,-0.0066310237,-1.3456633e-06,9.890279e-07,0.0,0.01271488,0.0013689428,-0.10304668,-0.08198154,-0.00033641583,0.00024725695,0.0,0.011835771,0.0022412713,-0.0805743,0.40487775,0.0,0.14430404,0.10304668,0.27360266,0.4428809,0.77999157,0.719369,inf,inf,inf,inf,1,1,1,1,1,0,1,1,1,1,1
2560000,1696000,28.452394800000004,-13.8671276,0.0031978425,0.00055149966,-0.016121672,-1.3456633e-06,9.890279e-07,0.0,0.01994491,0.0009157933,-0.11922689,-0.098033994,-0.00033641583,0.00024725695,0.0,0.02711758,-0.031780783,-0.12024119,0.405451,0.0,0.15379469,0.11922689,0.24397014,0.42742136,0.61370313,0.69915473,inf,inf,inf,inf,1,1,1,1,1,0,1,1,1,1,1
2664000,1696000,28.452394800000004,-13.8671276,0.0054562176,0.0006824947,-0.026851078,-1.3456633e-06,9.890279e-07,0.0,0.02764169,0.0023213227,-0.13388754,-0.11154593,-0.00033641583,0.00024725695,0.0,0.13067614,0.03140098,-0.20110606,0.40584186,0.0,0.1645241,0.13388754,0.22572519,0.4211997,0.5049081,0.674647,inf,inf,inf,inf,1,1,1,1,1,0,1,1,1,1,1
2760000,1696000,28.452394800000004,-13.8671276,0.007953421,0.0008535674,-0.037185326,-1.3456633e-06,9.890279e-07,0.0,0.031971946,0.0026039644,-0.14435543,-0.1206976,-0.00033641583,0.00024725695,0.0,0.042460885,-0.052268345,-0.21273455,0.40580758,0.0,0.17485835,0.14435543,0.21856122,0.42407495,0.44483066,0.65283406,inf,inf,inf,inf,1,1,1,1,1,0,1,1,1,1,1
2864000,1696000,28.452394800000004,-13.8671276,0.0107970685,0.0009125944,-0.050235286,-1.3456633e-06,9.890279e-07,0.0,0.037441287,0.001831249,-0.15784742,-0.13389006,-0.00033641583,0.00024725695,0.0,0.07568128,0.039522476,-0.18714367,0.40541813,0.0,0.1879083,0.15784742,0.21470319,0.43141985,0.40234503,0.62961155,inf,inf,inf,inf,1,1,1,1,1,0,1,1,1,1,1
2960000,1696000,28.452394800000004,-13.8671276,0.013578539,0.0010694647,-0.063363254,-1.3456633e-06,9.890279e-07,0.0,0.042398997,0.0044237627,-0.17111261,-0.14683032,-0.00033641583,0.00024725695,0.0,0.07772023,0.010466973,-0.17101316,0.4052516,0.0,0.20103627,0.17111261,0.20018552,0.42514503,0.36152607,0.59727544,inf,inf,inf,inf,1,1,1,1,1,0,1,1,1,1,1
3064000,1696000,28.452394800000004,-13.8671276,0.016780002,0.0013298908,-0.076029554,-1.3456633e-06,9.890279e-07,0.0,0.050411377,0.00442605,-0.18035606,-0.15309557,-0.00033641583,0.00024725695,0.0,0.07496375,0.090462714,-0.12386962,0.40496254,0.0,0.21370257,0.18035606,0.19088589,0.42202166,0.3363681,0.56543535,inf,inf,inf,inf,1,1,1,1,1,0,1,1,1,1,1
3160000,1696000,28.452394800000004,-13.8671276,0.020009967,0.0016021745,-0.0846833,-1.3456633e-06,9.890279e-07,0.0,0.055977292,0.0063621765,-0.18516576,-0.15202814,-0.00033641583,0.00024725695,0.0,0.10292604,0.14357652,-0.07806066,0.4048308,0.0,0.22235632,0.18516576,0.18788533,0.42413,0.3264194,0.5412409,inf,inf,inf,inf,1,1,1,1,1,0,1,1,1,1,1
3264000,1696000,28.452394800000004,-13.8671276,0.023659253,0.0019815536,-0.0900821,-1.3456633e-06,9.890279e-07,0.0,0.06269936,0.006077375,-0.18586066,-0.14337745,-0.00033641583,0.00024725695,0.0,0.119577646,0.03846258,-0.0950694,0.40484205,0.0,0.22775513,0.18586066,0.18764149,0.4286037,0.32400656,0.51872075,inf,inf,inf,inf,1,1,1,1,1,0,1,1,1,1,1
3360000,1696000,28.452394800000004,-13.8671276,0.027135689,0.0023810847,-0.09241374,-1.3456633e-06,9.890279e-07,0.0,0.06891715,0.0065356432,-0.18663122,-0.13427113,-0.00033641583,0.00024725695,0.0,0.11570259,-0.022889303,-0.08097849,0.40495682,0.0,0.23008676,0.18663122,0.179918,0.41915292,0.31722036,0.4897705,inf,inf,inf,inf,1,1,1,1,1,0,1,1,1,1,1
3464000,1696000,28.452394800000004,-13.8671276,0.030902872,0.0028146112,-0.09450107,-1.3456633e-06,9.890279e-07,0.0,0.073983274,0.007261376,-0.18528579,-0.12359867,-0.00033641583,0.00024725695,0.0,0.119606115,0.04327806,-0.12708734,0.40491432,0.0,0.2321741,0.18528579,0.18143718,0.42182267,0.32247114,0.47082758,inf,inf,inf,inf,1,1,1,1,1,0,1,1,1,1,1
3560000,1696000,28.452394800000004,-13.8671276,0.034328755,0.0031920364,-0.096276,-1.3456633e-06,9.890279e-07,0.0,0.0786847,0.008077752,-0.18448158,-0.115500905,-0.00033641583,0.00024725695,0.0,0.1480302,-0.01647922,-0.2183048,0.40485257,0.0,0.23394902,0.18448158,0.17624512,0.41198227,0.32138664,0.44687322,inf,inf,inf,inf,1,1,1,1,1,0,1,1,1,1,1
3664000,1696000,28.452394800000004,-13.8671276,0.03799538,0.0035782063,-0.09460957,-1.3456633e-06,9.890279e-07,0.0,0.0846219,0.0072103217,-0.18068054,-0.10154344,-0.00033641583,0.00024725695,0.0,0.032200884,-0.0456068,-0.18037203,0.40490893,0.0,0.2322826,0.18068054,0.17405346,0.40521204,0.32365397,0.42644376,inf,inf,inf,inf,1,1,1,1,1,0,1,1,1,1,1
3760000,1696000,28.452394800000004,-13.8671276,0.041333247,0.0038665838,-0.092874944,-1.3456633e-06,9.890279e-07,0.0,0.088943504,0.007940989,-0.17937122,-0.092087716,-0.00033641583,0.00024725695,0.0,0.08585327,0.012427189,-0.08403975,0.40509662,0.0,0.23054796,0.17937122,0.17598121,0.40407273,0.32932582,0.41330895,inf,inf,inf,inf,1,1,1,1,1,0,1,1,1,1,1
3864000,1696000,28.452394800000004,-13.8671276,0.044541817,0.004155542,-0.091096886,-1.3456633e-06,9.890279e-07,0.0,0.0909503,0.0077588717,-0.17766868,-0.08297585,-0.00033641583,0.00024725695,0.0,0.07294924,-0.016748002,-0.12517346,0.4049794,0.0,0.2287699,0.17766868,0.17485407,0.3973122,0.33063632,0.3975321,inf,inf,inf,inf,1,1,1,1,1,0,1,1,1,1,1
3960000,1696000,28.452394800000004,-13.8671276,0.04709043,0.004359208,-0.08967457,-1.3456633e-06,9.890279e-07,0.0,0.09367255,0.009020588,-0.1777606,-0.077329144,-0.00033641583,0.00024725695,0.0,0.018518446,0.011477859,-0.16388017,0.4048422,0.0,0.22734758,0.1777606,0.17747816,0.39607266,0.33473673,0.38806236,inf,inf,inf,inf,1,1,1,1,1,0,1,1,1,1,1
4060000,1696000,28.452394800000004,-13.8671276,0.049704228,0.004664873,-0.09093718,-1.3456633e-06,9.890279e-07,0.0,0.09771152,0.010187424,-0.17738917,-0.07383914,-0.00033641583,0.00024725695,0.0,0.042833418,0.052897103,-0.06168563,0.4047705,0.0,0.2286102,0.17738917,0.18025887,0.39483812,0.3377394,0.38007084,inf,inf,inf,inf,1,1,1,1,1,0,1,1,1,1,1
4164000,1696000,28.452394800000004,-13.8671276,0.05169603,0.004941579,-0.09346251,-1.3456633e-06,9.890279e-07,0.0,0.099204965,0.010122125,-0.18034735,-0.07531364,-0.00033641583,0.00024725695,0.0,0.10364374,0.03559521,-0.10455487,0.40458658,0.0,0.23113553,0.18034735,0.17938237,0.38861898,0.33491156,0.36990282,inf,inf,inf,inf,1,1,1,1,1,0,1,1,1,1,1
4268000,1696000,28.452394800000004,-13.8671276,0.053137306,0.0051608533,-0.09457473,-1.3456633e-06,9.890279e-07,0.0,0.10115938,0.009923485,-0.18153787,-0.073537946,-0.00033641583,0.00024725695,0.0,0.063280806,0.012583222,-0.093902454,0.40443647,0.0,0.23224774,0.18153787,0.17941351,0.38396937,0.33139098,0.36145538,inf,inf,inf,inf,1,1,1,1,1,0,1,1,1,1,1
4364000,1696000,28.452394800000004,-13.8671276,0.05405766,0.005230595,-0.09607467,-1.3456633e-06,9.890279e-07,0.0,0.10173806,0.008295634,-0.18133906,-0.071072206,-0.00033641583,0.00024725695,0.0,0.11752874,0.07902171,-0.026325693,0.4046378,0.0,0.23374769,0.18133906,0.1818572,0.38323185,0.3307941,0.35746223,inf,inf,inf,inf,1,1,1,1,1,0,1,1,1,1,1
4468000,1696000,28.452394800000004,-13.8671276,0.054703444,0.0051160273,-0.09731982,-1.3456633e-06,9.890279e-07,0.0,0.101403385,0.007101294,-0.18244207,-0.06933535,-0.00033641583,0.00024725695,0.0,0.09660277,-0.03693676,-0.19346549,0.40490392,0.0,0.23499283,0.18244207,0.18043594,0.3781477,0.324477,0.35153732,inf,inf,inf,inf,1,1,1,1,1,0,1,1,1,1,1
4564000,1696000,28.452394800000004,-13.8671276,0.054893773,0.0047823973,-0.09892942,-1.3456633e-06,9.890279e-07,0.0,0.10047363,0.005886297,-0.18175721,-0.06669289,-0.00033641583,0.00024725695,0.0,0.054582544,0.022373758,-0.027283093,0.4049619,0.0,0.23660244,0.18175721,0.17688392,0.37143403,0.31557855,0.34563145,inf,inf,inf,inf,1,1,1,1,1,0,1,1,1,1,1
4668000,1696000,28.452394800000004,-13.8671276,0.054640427,0.004415877,-0.10126838,-1.3456633e-06,9.890279e-07,0.0,0.0984599,0.0059479964,-0.18382987,-0.06729775,-0.00033641583,0.00024725695,0.0,0.07516366,-0.047016967,-0.14815386,0.4048542,0.0,0.2389414,0.18382987,0.1809458,0.3737329,0.31537825,0.3453455,inf,inf,inf,inf,1,1,1,1,1,0,1,1,1,1,1
4764000,1696000,28.452394800000004,-13.8671276,0.054106697,0.0041437265,-0.10485474,-1.3456633e-06,9.890279e-07,0.0,0.09770393,0.007877154,-0.18521899,-0.06854679,-0.00033641583,0.00024725695,0.0,0.11494467,-0.00014451506,-0.09565893,0.40493205,0.0,0.24252775,0.18521899,0.17689349,0.3676697,0.30556622,0.3407316,inf,inf,inf,inf,1,1,1,1,1,0,1,1,1,1,1
4868000,1696000,28.452394800000004,-13.8671276,0.053433865,0.003981803,-0.10849914,-1.3456633e-06,9.890279e-07,0.0,0.09760775,0.00714931,-0.18907358,-0.07170816,-0.00033641583,0.00024725695,0.0,0.10327316,0.0013329844,-0.2095904,0.40494877,0.0,0.24617216,0.18907358,0.1804798,0.37037268,0.30475193,0.3413482,inf,inf,inf,inf,1,1,1,1,1,0,1,1,1,1,1
4964000,1696000,28.452394800000004,-13.8671276,0.052676342,0.0038174933,-0.111277446,-1.3456633e-06,9.890279e-07,0.0,0.0954184,0.0072154747,-0.1896192,-0.07075429,-0.00033641583,0.00024725695,0.0,0.027385917,0.03748698,-0.15568545,0.40494427,0.0,0.24895047,0.1896192,0.1761336,0.3648907,0.2949637,0.33748603,inf,inf,inf,inf,1,1,1,1,1,0,1,1,1,1,1
5068000,1696000,28.452394800000004,-13.8671276,0.0,0.0,-0.11456991,-1.3456633e-06,9.890279e-07,0.0,0.09189803,0.010084003,-0.18894055,-0.06887051,-0.00033641583,0.00024725695,0.0,0.09378558,0.024094878,-0.21187867,0.405253,0.0,0.25224292,0.18894055,0.1738622,0.36190394,0.2877023,0.33507323,inf,inf,inf,inf,0,1,0,1,1,0,1,1,1,1,1
5164000,1696000,28.452394800000004,-13.8671276,0.0,0.0,-0.117581606,-1.3456633e-06,9.890279e-07,0.0,0.0894413,0.011789253,-0.18864045,-0.06743481,-0.00033641583,0.00024725695,0.0,0.04631956,0.05236943,-0.11139921,0.40538317,0.0,0.25525463,0.18864045,0.17502995,0.36304522,0.28508636,0.33507487,inf,inf,inf,inf,0,1,0,1,1,0,1,1,1,1,1
5268000,1696000,28.452394800000004,-13.8671276,0.0,0.0,-0.119416945,-1.3456633e-06,9.890279e-07,0.0,0.08816834,0.011933678,-0.18975988,-0.06595251,-0.00033641583,0.00024725695,0.0,0.0318216,0.0065399213,-0.1764763,0.40558857,0.0,0.25708997,0.18975988,0.17264836,0.36045852,0.2784252,0.33278218,inf,inf,inf,inf,0,1,0,1,1,0,1,1,1,1,1
5364000,1696000,28.452394800000004,-13.8671276,0.0,0.0,-0.12152862,-1.3456633e-06,9.890279e-07,0.0,0.0883054,0.012262272,-0.18851903,-0.06302448,-0.00033641583,0.00024725695,0.0,0.010594143,-0.005146008,-0.043201257,0.40562308,0.0,0.25920165,0.18851903,0.17370601,0.36188275,0.27631992,0.33274874,inf,inf,inf,inf,0,1,0,1,1,0,1,1,1,1,1
5468000,1696000,28.452394800000004,-13.8671276,0.0,0.0,-0.12367247,-1.3456633e-06,9.890279e-07,0.0,0.0857551,0.011880533,-0.18765295,-0.060497537,-0.00033641583,0.00024725695,0.0,0.084454946,0.040041164,-0.019075347,0.40552658,0.0,0.2613455,0.18765295,0.17123204,0.3595169,0.27032104,0.33023682,inf,inf,inf,inf,0,1,0,1,1,0,1,1,1,1,1
5564000,1696000,28.452394800000004,-13.8671276,0.0,0.0,-0.123763636,-1.3456633e-06,9.890279e-07,0.0,0.08584865,0.012355252,-0.18541549,-0.05515756,-0.00033641583,0.00024725695,0.0,0.06995198,0.037733186,-0.1395121,0.40549773,0.0,0.26143664,0.18541549,0.17227848,0.36113772,0.2688226,0.3299735,inf,inf,inf,inf,0,1,0,1,1,0,1,1,1,1,1
5668000,1696000,28.452394800000004,-13.8671276,0.0,0.0,-0.12434777,-1.3456633e-06,9.890279e-07,0.0,0.085228585,0.0116600385,-0.18262321,-0.050160468,-0.00033641583,0.00024725695,0.0,0.14561394,-0.029940069,-0.0044582407,0.4054772,0.0,0.2620208,0.18262321,0.16990262,0.3589511,0.26360878,0.32712758,inf,inf,inf,inf,0,1,0,1,1,0,1,1,1,1,1
5772000,1696000,28.452394800000004,-13.8671276,0.0,0.0,-0.12503465,-1.3456633e-06,9.890279e-07,0.0,0.08352679,0.0131407585,-0.18063675,-0.04657928,-0.00033641583,0.00024725695,0.0,0.08405727,-0.037917532,-0.07314886,0.40557355,0.0,0.26270765,0.18063675,0.17265701,0.3627159,0.2642904,0.32753763,inf,inf,inf,inf,0,1,0,1,1,0,1,1,1,1,1
5868000,1696000,28.452394800000004,-13.8671276,0.0,0.0,-0.123970896,-1.3456633e-06,9.890279e-07,0.0,0.08207982,0.012568017,-0.177364,-0.040507138,-0.00033641583,0.00024725695,0.0,0.08481085,0.009792754,-0.044268552,0.40572712,0.0,0.26164392,0.177364,0.16866332,0.35850424,0.25809047,0.32317984,inf,inf,inf,inf,0,1,0,1,1,0,1,1,1,1,1
5964000,1696000,28.452394800000004,-13.8671276,0.0,0.0,-0.12444768,-1.3456633e-06,9.890279e-07,0.0,0.08078457,0.011930113,-0.17211296,-0.03478569,-0.00033641583,0.00024725695,0.0,0.036480047,-0.05349149,-0.08299108,0.40545872,0.0,0.2621207,0.17211296,0.16972758,0.36018568,0.25752723,0.32209077,inf,inf,inf,inf,0,1,0,1,1,0,1,1,1,1,1
6068000,1696000,28.452394800000004,-13.8671276,0.0,0.0,-0.12283955,-1.3456633e-06,9.890279e-07,0.0,0.07475129,0.01210556,-0.16911474,-0.02952049,-0.00033641583,0.00024725695,0.0,0.08315645,0.061844014,-0.05406141,0.40543488,0.0,0.14399979,0.16911474,0.17255734,0.36395037,0.2587836,0.32182217,inf,inf,inf,inf,0,1,0,1,1,0,1,1,1,1,1
6164000,1696000,28.452394800000004,-13.8671276,0.0,0.0,-0.121432364,-1.3456633e-06,9.890279e-07,0.0,0.072194725,0.010783572,-0.16418472,-0.023211822,-0.00033641583,0.00024725695,0.0,0.04720475,0.015481861,-0.001961365,0.40553385,0.0,0.14383781,0.16418472,0.16799642,0.3591321,0.2521767,0.31635687,inf,inf,inf,inf,0,1,0,1,1,0,1,1,1,1,1
6268000,1696000,28.452394800000004,-13.8671276,0.016339798,0.003138265,-0.11685758,-0.022291481,-0.0032633767,0.0,0.008002506,0.0033465372,-0.008512699,-0.0040960694,-0.06255691,-0.0080844965,0.14877982,0.04359675,0.049834166,-0.19872001,0.40549138,0.0,0.14042439,0.008512699,1.0000032,0.3603342,0.31625742,0.20803402,inf,inf,inf,inf,1,1,1,1,2,0,2,2,1,1,1
6364000,1696000,28.452394800000004,-13.8671276,0.0090011805,0.0022606049,-0.09669466,-0.022291481,-0.0032633767,0.0,0.007968932,0.0029673185,-0.005888878,0.05062617,-0.06255691,-0.0080844965,0.14877982,0.11529426,0.0007603739,-0.13037677,0.40539148,0.0,0.13340074,0.005888878,1.0005416,0.33517233,0.3174022,0.208612,inf,inf,inf,inf,1,1,1,1,2,0,2,2,1,1,1
6468000,1696000,28.452394800000004,-13.8671276,0.0015535685,0.0014977731,-0.07305743,-0.022291481,-0.0032633767,0.0,0.0072068227,0.005340304,-0.0055351104,0.08859122,-0.06255691,-0.0080844965,0.14877982,0.07772256,0.059032723,0.020347534,0.4055085,0.0,0.11995922,0.0055351104,0.81756425,0.31934264,0.29173014,0.18310241,inf,inf,inf,inf,1,1,1,1,2,0,2,2,1,1,1
6564000,1696000,28.452394800000004,-13.8671276,-0.0030869714,0.0012709002,-0.054333743,-0.022291481,-0.0032633767,0.0,0.011108516,0.007053899,-0.0030293711,0.11310135,-0.06255691,-0.0080844965,0.14877982,0.106866054,0.07505495,-0.03704894,0.4054931,0.0,0.11163677,0.0030293711,0.81944364,0.30404797,0.29608673,0.18439479,inf,inf,inf,inf,1,1,1,1,2,0,2,2,1,1,1
6668000,1696000,28.452394800000004,-13.8671276,-0.005581346,0.001453793,-0.038007244,-0.022291481,-0.0032633767,0.0,0.014079018,0.011226579,-0.00292668,0.12674506,-0.06255691,-0.0080844965,0.14877982,0.030918919,0.09797221,-0.123606056,0.40552056,0.0,0.102396116,0.00292668,0.7105924,0.2898965,0.2781811,0.16672866,inf,inf,inf,inf,1,1,1,1,2,0,2,2,1,1,1
6764000,1696000,28.452394800000004,-13.8671276,-0.005820436,0.0018600743,-0.026242264,-0.022291481,-0.0032633767,0.0,0.019608736,0.013318103,-0.006066545,0.12936644,-0.06255691,-0.0080844965,0.14877982,0.070223525,0.034661606,-0.05409121,0.40562364,0.0,0.1,0.006066545,0.7136803,0.28329214,0.28613338,0.16869648,inf,inf,inf,inf,1,1,1,1,2,0,2,2,1,1,1
6868000,1696000,28.452394800000004,-13.8671276,-0.0042570005,0.0028354283,-0.017164694,-0.022291481,-0.0032633767,0.0,0.027143594,0.018084906,-0.007800854,0.12792784,-0.06255691,-0.0080844965,0.14877982,0.055620678,0.07152408,-0.018433666,0.40553415,0.0,0.1,0.007800854,0.6394247,0.27220446,0.27349472,0.1555998,inf,inf,inf,inf,1,1,1,1,2,0,2,2,1,1,1
6964000,1696000,28.452394800000004,-13.8671276,-0.0022778078,0.004173937,-0.010625223,-0.022291481,-0.0032633767,0.0,0.03277305,0.019837007,-0.0098323785,0.12331592,-0.06255691,-0.0080844965,0.14877982,0.11822103,0.11822199,-0.027075408,0.4053146,0.0,0.1,0.0098323785,0.6437118,0.26857805,0.28519946,0.15814742,inf,inf,inf,inf,1,1,1,1,2,0,2,2,1,1,1
7068000,1696000,28.452394800000004,-13.8671276,0.0012486487,0.0059692673,-0.0049016173,-0.022291481,-0.0032633767,0.0,0.040279016,0.023551462,-0.014390469,0.11421505,-0.06255691,-0.0080844965,0.14877982,0.08383963,0.033323243,-0.11606141,0.40529415,0.0,0.1,0.014390469,0.5887841,0.25939074,0.27569953,0.14798798,inf,inf,inf,inf,1,1,1,1,2,0,2,2,1,1,1
7164000,1696000,28.452394800000004,-13.8671276,0.0046711364,0.0072589377,-0.001603317,-0.022291481,-0.0032633767,0.0,0.047345392,0.025643408,-0.014991698,0.10754335,-0.06255691,-0.0080844965,0.14877982,0.14733636,0.010889827,0.025227664,0.40548283,0.0,0.1,0.014991698,0.59433514,0.25778317,0.29087302,0.15110391,inf,inf,inf,inf,1,1,1,1,2,0,2,2,1,1,1
7268000,1696000,28.452394800000004,-13.8671276,0.009591856,0.008836079,0.0005629023,-0.022291481,-0.0032633767,0.0,0.05500685,0.024709985,-0.019962491,0.095149234,-0.06255691,-0.0080844965,0.14877982,0.1304419,-0.055466883,-0.1376029,0.4055373,0.0,0.1,0.019962491,0.5513733,0.24987496,0.28260934,0.1429252,inf,inf,inf,inf,1,1,1,1,2,0,2,2,1,1,1
7364000,1696000,28.452394800000004,-13.8671276,0.013954788,0.009822752,0.0023772907,-0.022291481,-0.0032633767,0.0,0.06002571,0.026056366,-0.019989293,0.08875359,-0.06255691,-0.0080844965,0.14877982,0.021036712,0.110496655,-0.040185634,0.40538236,0.0,0.1,0.019989293,0.5582857,0.24968025,0.30047485,0.146565,inf,inf,inf,inf,1,1,1,1,2,0,2,2,1,1,1
7468000,1696000,28.452394800000004,-13.8671276,0.01956367,0.011131632,0.0032590972,-0.022291481,-0.0032633767,0.0,0.06780268,0.026869973,-0.024982305,0.07663938,-0.06255691,-0.0080844965,0.14877982,0.035462286,-0.006013193,-0.014914199,0.40523195,0.0,0.1,0.024982305,0.52318,0.2427054,0.29170683,0.13974544,inf,inf,inf,inf,1,1,1,1,2,0,2,2,1,1,1
7564000,1696000,28.452394800000004,-13.8671276,0.023251511,0.011827112,0.0037739484,-0.022291481,-0.0032633767,0.0,0.069581315,0.027069733,-0.027319923,0.068202384,-0.06255691,-0.0080844965,0.14877982,0.10379796,0.0070711463,-0.028810462,0.40542763,0.0,0.1,0.027319923,0.53153855,0.24353063,0.31164256,0.14384109,inf,inf,inf,inf,1,1,1,1,2,0,2,2,1,1,1
7668000,1696000,28.452394800000004,-13.8671276,0.027791208,0.012945384,0.0034293642,-0.022291481,-0.0032633767,0.0,0.07339136,0.028302185,-0.031061996,0.057910144,-0.06255691,-0.0080844965,0.14877982,0.0904799,0.022972679,0.018723307,0.40552628,0.0,0.1,0.031061996,0.5017335,0.23723242,0.30114383,0.1379144,inf,inf,inf,inf,1,1,1,1,2,0,2,2,1,1,1
7764000,1696000,28.452394800000004,-13.8671276,0.029600171,0.01338223,0.0027536708,-0.022291481,-0.0032633767,0.0,0.07312633,0.025848746,-0.033236265,0.050137393,-0.06255691,-0.0080844965,0.14877982,0.1376636,-0.068560414,-0.023592262,0.40546075,0.0,0.1,0.033236265,0.5115746,0.23878898,0.32233328,0.14236616,inf,inf,inf,inf,1,1,1,1,2,0,2,2,1,1,1
7868000,1696000,28.452394800000004,-13.8671276,0.032146428,0.013953066,0.0016459664,-0.022291481,-0.0032633767,0.0,0.07339816,0.025374373,-0.03765753,0.040213313,-0.06255691,-0.0080844965,0.14877982,0.06888317,-0.0056171915,-0.11551938,0.40541324,0.0,0.1,0.03765753,0.4853594,0.23301913,0.3094147,0.13700154,inf,inf,inf,inf,1,1,1,1,2,0,2,2,1,1,1
7964000,1696000,28.452394800000004,-13.8671276,0.031866904,0.013872828,0.0032564208,-0.022291481,-0.0032633767,0.0,0.067956254,0.025573889,-0.03893348,0.03719028,-0.06255691,-0.0080844965,0.14877982,0.07625937,0.070776194,-0.056691464,0.4052527,0.0,0.1,0.03893348,0.49664786,0.23351069,0.3311447,0.14130872,inf,inf,inf,inf,1,1,1,1,2,0,2,2,1,1,1
8067999,1696000,28.452394800000004,-13.8671276,0.03228813,0.014193286,0.003734421,-0.022291481,-0.0032633767,0.0,0.067822285,0.02560834,-0.038068492,0.03503224,-0.06255691,-0.0080844965,0.14877982,0.13066493,0.08494758,-0.034781486,0.40518802,0.0,0.10030903,0.038068492,0.47283772,0.22976156,0.3156779,0.13665833,inf,inf,inf,inf,1,1,1,1,2,0,2,2,1,1,1
8163999,1696000,28.452394800000004,-13.8671276,0.031013532,0.013910948,0.006573677,-0.022291481,-0.0032633767,0.0,0.06457624,0.02369135,-0.0357298,0.036814332,-0.06255691,-0.0080844965,0.14877982,0.01050812,0.020204099,-0.07974953,0.40519005,0.0,0.1,0.0357298,0.4854719,0.23070249,0.3375304,0.14111617,inf,inf,inf,inf,1,1,1,1,2,0,2,2,1,1,1
8268000,1696000,28.452394800000004,-13.8671276,0.030772794,0.013872201,0.008376251,-0.022291481,-0.0032633767,0.0,0.06280737,0.02310389,-0.032458343,0.037748083,-0.06255691,-0.0080844965,0.14877982,-0.05419561,0.0820824,0.0046305354,0.40521348,0.0,0.1,0.032458343,0.46324867,0.2272177,0.3196252,0.13660067,inf,inf,inf,inf,1,1,1,1,2,0,2,2,1,1,1
8371999,1696000,28.452394800000004,-13.8671276,0.029188337,0.013342681,0.010030592,-0.022291481,-0.0032633767,0.0,0.05915451,0.023916975,-0.032751154,0.034902006,-0.06255691,-0.0080844965,0.14877982,0.007167795,-0.018124169,0.025564676,0.40533972,0.0,0.1,0.032751154,0.47833064,0.2292363,0.3428528,0.14166681,inf,inf,inf,inf,1,1,1,1,2,0,2,2,1,1,1
8468000,1696000,28.452394800000004,-13.8671276,0.028637547,0.013356727,0.010444755,-0.022291481,-0.0032633767,0.0,0.057174794,0.024722576,-0.032735027,0.031725474,-0.06255691,-0.0080844965,0.14877982,0.07211111,0.07497579,-0.03474019,0.4053783,0.0,0.1,0.032735027,0.45588487,0.22522187,0.32137084,0.1366218,inf,inf,inf,inf,1,1,1,1,2,0,2,2,1,1,1
8572000,1696000,28.452394800000004,-13.8671276,0.026216157,0.01297978,0.011396593,-0.022291481,-0.0032633767,0.0,0.053886402,0.024320371,-0.031317025,0.030424744,-0.06255691,-0.0080844965,0.14877982,0.1034409,0.045960695,-0.04635844,0.40542892,0.0,0.1,0.031317025,0.47206253,0.2274994,0.3439916,0.14167473,inf,inf,inf,inf,1,1,1,1,2,0,2,2,1,1,1
8668000,1696000,28.452394800000004,-13.8671276,0.0251841,0.013170853,0.011300089,-0.022291481,-0.0032633767,0.0,0.051217265,0.02625413,-0.032058224,0.026532259,-0.06255691,-0.0080844965,0.14877982,0.0805224,0.06573239,-0.10575633,0.40543604,0.0,0.1,0.032058224,0.45020938,0.22228068,0.3212935,0.13622934,inf,inf,inf,inf,1,1,1,1,2,0,2,2,1,1,1
8772000,1696000,28.452394800000004,-13.8671276,0.022964373,0.012877016,0.011829374,-0.022291481,-0.0032633767,0.0,0.049141202,0.025580503,-0.030148163,0.026015451,-0.06255691,-0.0080844965,0.14877982,0.080172665,0.043541096,-0.037192363,0.40556306,0.0,0.1,0.030148163,0.4672842,0.22613543,0.34309626,0.1415607,inf,inf,inf,inf,1,1,1,1,2,0,2,2,1,1,1
8868000,1696000,28.452394800000004,-13.8671276,0.022090094,0.013103023,0.011788483,-0.022291481,-0.0032633767,0.0,0.047466185,0.024665035,-0.030240813,0.023282023,-0.06255691,-0.0080844965,0.14877982,0.014054122,0.07498867,-0.032245178,0.4055654,0.0,0.1,0.030240813,0.44581717,0.22108239,0.31980592,0.13604797,inf,inf,inf,inf,1,1,1,1,2,0,2,2,1,1,1
8972000,1696000,28.452394800000004,-13.8671276,0.020059837,0.013324849,0.012079647,-0.022291481,-0.0032633767,0.0,0.043812882,0.026984692,-0.031271588,0.02008346,-0.06255691,-0.0080844965,0.14877982,0.04381331,0.04126108,-0.024188308,0.40549555,0.0,0.1,0.031271588,0.4636032,0.22504598,0.34061846,0.1412372,inf,inf,inf,inf,1,1,1,1,2,0,2,2,1,1,1
9068000,1696000,28.452394800000004,-13.8671276,0.019146431,0.013662736,0.01216821,-0.022291481,-0.0032633767,0.0,0.041793037,0.025031846,-0.030555386,0.018944226,-0.06255691,-0.0080844965,0.14877982,0.10839334,-0.04196393,0.022567807,0.40542513,0.0,0.1,0.030555386,0.4424068,0.22013304,0.31711155,0.13566215,inf,inf,inf,inf,1,1,1,1,2,0,2,2,1,1,1
9172000,1696000,28.452394800000004,-13.8671276,0.01701729,0.012216402,0.013136067,-0.022291481,-0.0032633767,0.0,0.036180973,0.024731759,-0.029964197,0.018532414,-0.06255691,-0.0080844965,0.14877982,0.050253056,0.096233435,-0.069362104,0.40548956,0.0,0.1,0.029964197,0.46074,0.22276668,0.337109,0.14027222,inf,inf,inf,inf,1,1,1,1,2,0,2,2,1,1,1
9268000,1696000,28.452394800000004,-13.8671276,0.015986381,0.011478622,0.013015483,-0.022291481,-0.0032633767,0.0,0.03586077,0.023615131,-0.029045362,0.017506536,-0.06255691,-0.0080844965,0.14877982,0.055609502,0.020040663,-0.005437992,0.40561667,0.0,0.1,0.029045362,0.43974715,0.21937998,0.3137142,0.1350552,inf,inf,inf,inf,1,1,1,1,2,0,2,2,1,1,1
9372000,1696000,28.452394800000004,-13.8671276,0.014073469,0.010341369,0.013795981,-0.022291481,-0.0032633767,0.0,0.033784058,0.02256832,-0.027130164,0.018250616,-0.06255691,-0.0080844965,0.14877982,-0.056862827,0.052762914,-0.0038929281,0.40542468,0.0,0.1,0.027130164,0.45848542,0.222082,0.33272615,0.1394676,inf,inf,inf,inf,1,1,1,1,2,0,2,2,1,1,1
9468000,1696000,28.452394800000004,-13.8671276,0.013225625,0.009728333,0.014105324,-0.022291481,-0.0032633767,0.0,0.032397024,0.023580749,-0.02656513,0.017303875,-0.06255691,-0.0080844965,0.14877982,0.02082961,-0.08071479,0.00390131,0.4054816,0.0,0.1,0.02656513,0.4376697,0.21878648,0.30967104,0.13423415,inf,inf,inf,inf,1,1,1,1,2,0,2,2,1,1,1
9572000,1696000,28.452394800000004,-13.8671276,0.011505162,0.0076978365,0.014970027,-0.022291481,-0.0032633767,0.0,0.030462028,0.020850172,-0.023414373,0.019257087,-0.06255691,-0.0080844965,0.14877982,0.033515476,0.033804547,0.011347233,0.40524566,0.0,0.1,0.023414373,0.45669344,0.2215231,0.32777733,0.1384288,inf,inf,inf,inf,1,1,1,1,2,0,2,2,1,1,1
9668000,1696000,28.452394800000004,-13.8671276,0.010833005,0.0064775553,0.014418152,-0.022291481,-0.0032633767,0.0,0.028196998,0.018234111,-0.025288386,0.0149954185,-0.06255691,-0.0080844965,0.14877982,0.021581829,0.0009981085,-0.057311725,0.4052583,0.0,0.1,0.025288386,0.43603897,0.21831003,0.30529994,0.13321002,inf,inf,inf,inf,1,1,1,1,2,0,2,2,1,1,1
9772000,1696000,28.452394800000004,-13.8671276,0.009101858,0.0054400936,0.01267473,-0.022291481,-0.0032633767,0.0,0.02376881,0.017043829,-0.025979914,0.011056584,-0.06255691,-0.0080844965,0.14877982,-0.044652317,-0.008653848,-0.0028805805,0.40524572,0.0,0.1,0.025979914,0.4552506,0.2210784,0.3225474,0.13718978,inf,inf,inf,inf,1,1,1,1,2,0,2,2,1,1,1
9876000,1696000,28.452394800000004,-13.8671276,0.008061018,0.0054598856,0.011326103,-0.022291481,-0.0032633767,0.0,0.022015985,0.01843549,-0.025665896,0.009079686,-0.06255691,-0.0080844965,0.14877982,0.048533488,0.010032715,-0.01762714,0.40513834,0.0,0.1,0.025665896,0.43616182,0.21864398,0.3019803,0.13244204,inf,inf,inf,inf,1,1,1,1,2,0,2,2,1,1,1
9972000,1696000,28.452394800000004,-13.8671276,0.006641428,0.006566199,0.010523543,-0.022291481,-0.0032633767,0.0,0.019870095,0.017801583,-0.025645485,0.0077526714,-0.06255691,-0.0080844965,0.14877982,0.03098865,0.020691862,0.015032477,0.40494874,0.0,0.1,0.025645485,0.45407572,0.2206786,0.31716096,0.13575074,inf,inf,inf,inf,1,1,1,1,2,0,2,2,1,1,1
10068000,1696000,28.452394800000004,-13.8671276,0.0057663713,0.007779313,0.009577787,-0.022291481,-0.0032633767,0.0,0.017854685,0.017848143,-0.02702991,0.005148187,-0.06255691,-0.0080844965,0.14877982,0.07961317,0.016622448,-0.006413087,0.40480512,0.0,0.100575365,0.02702991,0.43373832,0.21760431,0.2960363,0.13064823,inf,inf,inf,inf,1,1,1,1,2,0,2,2,1,1,1
10172000,1696000,28.452394800000004,-13.8671276,0.0037773126,0.008352643,0.008746672,-0.022291481,-0.0032633767,0.0,0.016192608,0.018156927,-0.028410653,0.0029049665,-0.06255691,-0.0080844965,0.14877982,0.048472777,0.017635385,-0.021405516,0.4046142,0.0,0.101406485,0.028410653,0.45310777,0.22032742,0.3117763,0.13416113,inf,inf,inf,inf,1,1,1,1,2,0,2,2,1,1,1
10276000,1696000,28.452394800000004,-13.8671276,0.0024608858,0.009222,0.008335466,-0.022291481,-0.0032633767,0.0,0.012167741,0.01844756,-0.024422402,0.0063745016,-0.06255691,-0.0080844965,0.14877982,0.039998133,0.011634073,0.004834495,0.4046012,0.0,0.10181769,0.024422402,0.43434605,0.21798907,0.29257527,0.12953421,inf,inf,inf,inf,1,1,1,1,2,0,2,2,1,1,1
10372000,1696000,28.452394800000004,-13.8671276,0.0010001088,0.009862748,0.009487956,-0.022291481,-0.0032633767,0.0,0.011985452,0.019202854,-0.024005717,0.007619453,-0.06255691,-0.0080844965,0.14877982,0.027768575,0.056268185,0.04492141,0.40455022,0.0,0.1006652,0.024005717,0.45229614,0.21995394,0.30641475,0.13242018,inf,inf,inf,inf,1,1,1,1,2,0,2,2,1,1,1
10476000,1696000,28.452394800000004,-13.8671276,0.00017852723,0.01071854,0.010230732,-0.022291481,-0.0032633767,0.0,0.013281409,0.018491713,-0.02172517,0.00998324,-0.06255691,-0.0080844965,0.14877982,0.09930487,-0.06419713,0.055070963,0.40437555,0.0,0.10094477,0.02172517,0.43369865,0.21767026,0.28784648,0.12789454,inf,inf,inf,inf,1,1,1,1,2,0,2,2,1,1,1
10572000,1696000,28.452394800000004,-13.8671276,-0.00046614296,0.010633343,0.01170515,-0.022291481,-0.0032633767,0.0,0.013368561,0.017012361,-0.018343655,0.0138291465,-0.06255691,-0.0080844965,0.14877982,0.026154883,0.0019413199,0.037726942,0.40420204,0.0,0.1,0.018343655,0.451605,0.22092286,0.30110556,0.13096099,inf,inf,inf,inf,1,1,1,1,2,0,2,2,1,1,1
10668000,1696000,28.452394800000004,-13.8671276,-0.00025784664,0.011039268,0.012418664,-0.022291481,-0.0032633767,0.0,0.012801931,0.017470354,-0.016138125,0.015346657,-0.06255691,-0.0080844965,0.14877982,0.046236582,0.03666563,-0.030661,0.40411025,0.0,0.1,0.016138125,0.4711793,0.22427528,0.31468102,0.133895,inf,inf,inf,inf,1,1,1,1,2,0,2,2,1,1,1
10772000,1696000,28.452394800000004,-13.8671276,0.0004503267,0.011404395,0.01231608,-0.022291481,-0.0032633767,0.0,0.012067428,0.0147908265,-0.015530929,0.014258413,-0.06255691,-0.0080844965,0.14877982,0.013105774,-0.057845503,0.031769272,0.40378046,0.0,0.1,0.015530929,0.4480576,0.22015993,0.29239684,0.12842073,inf,inf,inf,inf,1,1,1,1,2,0,2,2,1,1,1
10868000,1696000,28.452394800000004,-13.8671276,0.00070921634,0.010075401,0.012635612,-0.022291481,-0.0032633767,0.0,0.0104262065,0.011587687,-0.013921659,0.014752945,-0.06255691,-0.0080844965,0.14877982,-0.017278042,0.01335331,-0.008741393,0.40357608,0.0,0.1,0.013921659,0.46709195,0.22340955,0.30523837,0.13116404,inf,inf,inf,inf,1,1,1,1,2,0,2,2,1,1,1
10972000,1696000,28.452394800000004,-13.8671276,0.0014510205,0.009078462,0.012322332,-0.022291481,-0.0032633767,0.0,0.012001529,0.010510013,-0.012841618,0.014028074,-0.06255691,-0.0080844965,0.14877982,-0.036453623,-0.037840936,-0.0042645256,0.40343893,0.0,0.1,0.012841618,0.44511747,0.21947646,0.28489566,0.12599692,inf,inf,inf,inf,1,1,1,1,2,0,2,2,1,1,1
11068000,1696000,28.452394800000004,-13.8671276,0.0012655804,0.0076616136,0.01186674,-0.022291481,-0.0032633767,0.0,0.01167551,0.0075132954,-0.012228351,0.012923191,-0.06255691,-0.0080844965,0.14877982,-0.0046944185,-0.0027255008,-0.010069459,0.403222,0.0,0.1,0.012228351,0.4637044,0.22128691,0.29711673,0.12818433,inf,inf,inf,inf,1,1,1,1,2,0,2,2,1,1,1
11172000,1696000,28.452394800000004,-13.8671276,0.0015701186,0.00626703,0.011218336,-0.022291481,-0.0032633767,0.0,0.011934318,0.0045316108,-0.010887494,0.012439281,-0.06255691,-0.0080844965,0.14877982,0.044546407,0.002187902,-0.0013830139,0.40326312,0.0,0.1,0.010887494,0.44265264,0.21889448,0.27832586,0.12369718,inf,inf,inf,inf,1,1,1,1,2,0,2,2,1,1,1
11268000,1696000,28.452394800000004,-13.8671276,0.0013759264,0.004257435,0.011027441,-0.022291481,-0.0032633767,0.0,0.012250117,0.0025693346,-0.008724476,0.013295322,-0.06255691,-0.0080844965,0.14877982,0.057198975,-0.0006684058,0.008229165,0.40341142,0.0,0.1,0.008724476,0.46086052,0.22067271,0.29000184,0.12575586,inf,inf,inf,inf,1,1,1,1,2,0,2,2,1,1,1
11372000,1696000,28.452394800000004,-13.8671276,0.0015898602,0.002482617,0.010744742,-0.022291481,-0.0032633767,0.0,0.011717714,-0.001860141,-0.007081696,0.013414976,-0.06255691,-0.0080844965,0.14877982,-0.051428124,-0.013604076,-0.00025890765,0.40332678,0.0,0.1,0.007081696,0.44056424,0.21713522,0.2724741,0.12116822,inf,inf,inf,inf,1,1,1,1,2,0,2,2,1,1,1
11476000,1696000,28.452394800000004,-13.8671276,0.0005318319,0.0007539137,0.009455263,-0.022291481,-0.0032633767,0.0,0.008126228,-0.0023320073,-0.008099798,0.010105576,-0.06255691,-0.0080844965,0.14877982,-0.008624774,-0.0053823893,0.06543192,0.40337867,0.0,0.1,0.008099798,0.45999497,0.22086525,0.28459364,0.12376555,inf,inf,inf,inf,1,1,1,1,2,0,2,2,1,1,1
11572000,1696000,28.452394800000004,-13.8671276,1.7015685e-05,-0.00048036274,0.009170184,-0.022291481,-0.0032633767,0.0,0.0072404183,-0.003752209,-0.00929933,0.0080605745,-0.06255691,-0.0080844965,0.14877982,0.014109362,-0.04910398,-0.04085991,0.40332732,0.0,0.1,0.00929933,0.43877614,0.21669878,0.26722553,0.11906512,inf,inf,inf,inf,1,1,1,1,2,0,2,2,1,1,1
11668000,1696000,28.452394800000004,-13.8671276,-0.00034481258,-0.0014760051,0.009238169,-0.022291481,-0.0032633767,0.0,0.00507459,-0.003739267,-0.010718973,0.0063267425,-0.06255691,-0.0080844965,0.14877982,0.029896835,0.045462973,-0.06290152,0.40337524,0.0,0.1,0.010718973,0.45636564,0.21962008,0.27798107,0.12119837,inf,inf,inf,inf,1,1,1,1,2,0,2,2,1,1,1
11772000,1696000,28.452394800000004,-13.8671276,-0.00069484126,-0.0021868097,0.00860739,-0.022291481,-0.0032633767,0.0,0.0036610605,-0.005086931,-0.010426231,0.005854821,-0.06255691,-0.0080844965,0.14877982,0.032946613,0.08004375,0.04037283,0.40328914,0.0,0.1,0.010426231,0.43723258,0.21626131,0.2624857,0.11701989,inf,inf,inf,inf,1,1,1,1,2,0,2,2,1,1,1
11876000,1696000,28.452394800000004,-13.8671276,-0.0021444438,-0.0027520016,0.010427066,-0.022291481,-0.0032633767,0.0,0.0038480994,-0.0056894138,-0.010125539,0.007692064,-0.06255691,-0.0080844965,0.14877982,0.06700813,-0.03976982,0.022861173,0.4034391,0.0,0.1,0.010125539,0.45606774,0.21979335,0.2737785,0.119316645,inf,inf,inf,inf,1,1,1,1,2,0,2,2,1,1,1
11972000,1696000,28.452394800000004,-13.8671276,-0.002896504,-0.003416403,0.011956021,-0.022291481,-0.0032633767,0.0,0.0039538685,-0.008231656,-0.0082189245,0.010577496,-0.06255691,-0.0080844965,0.14877982,-0.0062141623,-0.0070113814,0.023157334,0.4034531,0.0,0.1,0.0082189245,0.4358907,0.217102,0.25814903,0.11537752,inf,inf,inf,inf,1,1,1,1,2,0,2,2,1,1,1
12068000,1696000,28.452394800000004,-13.8671276,-0.003540775,-0.004551133,0.014192506,-0.022291481,-0.0032633767,0.0,0.0030245192,-0.009496292,-0.007823305,0.012318974,-0.06255691,-0.0080844965,0.14877982,-0.00430108,-0.040856116,-0.04570465,0.4033361,0.0,0.1,0.007823305,0.45299086,0.2185754,0.2681852,0.116915524,inf,inf,inf,inf,1,1,1,1,2,0,2,2,1,1,1
12172000,1696000,28.452394800000004,-13.8671276,-0.0036989457,-0.005660053,0.016354505,-0.022291481,-0.0032633767,0.0,0.0038899423,-0.011014621,-0.007235957,0.013888333,-0.06255691,-0.0080844965,0.14877982,-0.03685223,0.03808049,-0.056805085,0.40336737,0.0,0.102027535,0.007235957,0.43471324,0.21662523,0.2541348,0.11343032,inf,inf,inf,inf,1,1,1,1,2,0,2,2,1,1,1
12268000,1696000,28.452394800000004,-13.8671276,-0.0038897404,-0.00612326,0.019550761,-0.022291481,-0.0032633767,0.0,0.0039316933,-0.0077282423,-0.0033527452,0.019506432,-0.06255691,-0.0080844965,0.14877982,0.0012859235,-0.043587305,0.04811957,0.40326834,0.0,0.10099562,0.0033527452,0.45160013,0.21802445,0.2638581,0.114862636,inf,inf,inf,inf,1,1,1,1,2,0,2,2,1,1,1
12372000,1696000,28.452394800000004,-13.8671276,-0.003642813,-0.0062168823,0.022377294,-0.022291481,-0.0032633767,0.0,0.0036960053,-0.005200806,-0.0022387481,0.021421835,-0.06255691,-0.0080844965,0.14877982,-0.001527951,0.044164013,-0.06457883,0.40329146,0.0,0.10135275,0.0022387481,0.43367156,0.21616095,0.2504201,0.111551054,inf,inf,inf,inf,1,1,1,1,2,0,2,2,1,1,1
12468000,1696000,28.452394800000004,-13.8671276,-0.0030296505,-0.0057099015,0.02596454,-0.022291481,-0.0032633767,0.0,0.0050494536,-0.0017480707,-0.0026731908,0.022392929,-0.06255691,-0.0080844965,0.14877982,-0.038545985,0.15389542,-0.30190963,0.40299535,0.0,0.10041812,0.0026731908,0.45036092,0.21878567,0.2598343,0.11323666,inf,inf,inf,inf,1,1,1,1,2,0,2,2,1,1,1
12572000,1696000,28.452394800000004,-13.8671276,-0.0027761706,-0.0046892357,0.024310485,-0.022291481,-0.0032633767,0.0,-0.0034504437,0.0039975517,-0.10733003,-0.081828214,-0.06255691,-0.0080844965,0.14877982,-0.07810682,0.0655259,-1.4226184,0.40256482,0.0,0.10226323,0.10733003,0.43274194,0.21565701,0.24694654,0.10971237,inf,inf,inf,inf,1,1,1,1,2,0,2,2,1,1,1
12668000,1696000,28.452394800000004,-13.8671276,-0.0039480603,-0.0032136855,0.009681819,-0.022291481,-0.0032633767,0.0,-0.020111468,0.014181257,-0.2403828,-0.21521163,-0.06255691,-0.0080844965,0.14877982,-0.19132093,0.13737883,-1.2832162,0.40255174,0.0,0.11816421,0.2403828,0.44924894,0.21818799,0.256365,0.11129574,inf,inf,inf,inf,1,1,1,1,2,0,2,2,1,1,1
12772000,1696000,28.452394800000004,-13.8671276,-0.0073457817,-0.00060257956,-0.018945292,-0.022291481,-0.0032633767,0.0,-0.045635138,0.024243778,-0.3698663,-0.34421903,-0.06255691,-0.0080844965,0.14877982,-0.12590863,0.10389513,-1.3011917,0.40291658,0.0,0.14842996,0.3698663,0.4318425,0.21513881,0.24533345,0.107928105,inf,inf,inf,inf,1,1,1,1,2,0,2,2,1,1,1
12868000,1696000,28.452394800000004,-13.8671276,-0.012610775,0.0020796934,-0.056680273,-0.022291481,-0.0032633767,0.0,-0.057393756,0.028653739,-0.494268,-0.46746194,-0.06255691,-0.0080844965,0.14877982,-0.0549907,0.007812019,-1.3966131,0.40334064,0.0,0.18616495,0.494268,0.44827572,0.21759377,0.25584516,0.10942403,inf,inf,inf,inf,1,1,1,1,2,0,2,2,1,1,1
12972000,1696000,28.452394800000004,-13.8671276,-0.018725457,0.0051988624,-0.11226851,-0.022291481,-0.0032633767,0.0,-0.061439052,0.030477704,-0.630165,-0.6032834,-0.06255691,-0.0080844965,0.14877982,0.01900934,0.059011795,-1.2805116,0.4036414,0.0,0.24175318,0.630165,0.43106395,0.2146148,0.24473338,0.10620075,inf,inf,inf,inf,1,1,1,1,2,0,2,2,1,1,1
13068000,1696000,28.452394800000004,-13.8671276,-0.024067389,0.0074792574,-0.17376265,-0.022291481,-0.0032633767,0.0,-0.0609105,0.030900188,-0.7542867,-0.7252025,-0.06255691,-0.0080844965,0.14877982,-0.00505906,-0.037488353,-1.3173697,0.40382996,0.0,0.30324733,0.7542867,0.44743717,0.21700364,0.255003,0.10762168,inf,inf,inf,inf,1,1,1,1,2,0,2,2,1,1,1
13172000,1696000,28.452394800000004,-13.8671276,-0.029567838,0.010094234,-0.25535998,-0.022291481,-0.0032633767,0.0,-0.05483308,0.02670379,-0.88985395,-0.86022216,-0.06255691,-0.0080844965,0.14877982,0.12376704,-0.033296205,-1.3352426,0.40386435,0.0,0.38484466,0.88985395,0.4303972,0.21413241,0.2439261,0.10455576,inf,inf,inf,inf,1,1,1,1,2,0,2,2,1,1,1
13268000,1696000,28.452394800000004,-13.8671276,-0.034867804,0.012999877,-0.34126472,-0.022291481,-0.0032633767,0.0,-0.050550655,0.02795179,-0.9392907,-0.9092547,-0.06255691,-0.0080844965,0.14877982,0.061607245,0.006540489,0.5188724,0.40405136,0.0,0.47074938,0.9392907,0.4467059,0.21647868,0.2539612,0.10591689,inf,inf,inf,inf,1,1,1,1,2,0,2,2,1,1,1
13372000,1696000,28.452394800000004,-13.8671276,-0.04038756,0.01624347,-0.43120036,-0.022291481,-0.0032633767,0.0,-0.047821276,0.026037477,-0.84014887,-0.8107526,-0.06255691,-0.0080844965,0.14877982,-0.00050033844,-0.031510398,0.89474016,0.40422496,0.0,0.56068504,0.84014887,0.4298224,0.21369004,0.24289565,0.10298683,inf,inf,inf,inf,1,1,1,1,2,0,2,2,1,1,1
13468000,1696000,28.452394800000004,-13.8671276,-0.04666994,0.01955235,-0.5062972,-0.022291481,-0.0032633767,0.0,-0.042888463,0.022862332,-0.7971448,-0.7679317,-0.06255691,-0.0080844965,0.14877982,0.12429055,-0.065425456,0.15212594,0.404111,0.0,0.6357818,0.7971448,0.44603518,0.21597375,0.25101218,0.10428366,inf,inf,inf,inf,1,1,1,1,2,0,2,2,1,1,1
13572000,1696000,28.452394800000004,-13.8671276,-0.05265943,0.022650262,-0.5872181,-0.022291481,-0.0032633767,0.0,-0.041219167,0.01864568,-0.762705,-0.73643667,-0.06255691,-0.0080844965,0.14877982,0.068051286,-0.0042759054,0.4225997,0.4041086,0.0,0.71670276,0.762705,0.42941773,0.21324961,0.23790994,0.101479106,inf,inf,inf,inf,1,1,1,1,2,0,2,2,1,1,1
13668000,1696000,28.452394800000004,-13.8671276,-0.058769245,0.025248656,-0.6603157,-0.022291481,-0.0032633767,0.0,-0.037361458,0.014435237,-0.7158912,-0.6944378,-0.06255691,-0.0080844965,0.14877982,5.5442793e-05,-0.1563123,0.43055505,0.40407822,0.0,0.78980035,0.7158912,0.4453929,0.21423952,0.24566287,0.102411926,inf,inf,inf,inf,1,1,1,1,2,0,2,2,1,1,1
13772000,1696000,28.452394800000004,-13.8671276,-0.06432467,0.027391752,-0.73495966,-0.022291481,-0.0032633767,0.0,-0.031581037,0.01184528,-0.6685773,-0.6521107,-0.06255691,-0.0080844965,0.14877982,0.09109955,0.007779861,0.44239497,0.4043166,0.0,0.8644443,0.6685773,0.428961,0.21282245,0.23384516,0.10005304,inf,inf,inf,inf,1,1,1,1,2,0,2,2,1,1,1
13868000,1696000,28.452394800000004,-13.8671276,-0.0692854,0.028647257,-0.8002056,-0.022291481,-0.0032633767,0.0,-0.026440311,0.009641835,-0.63326836,-0.6210091,-0.06255691,-0.0080844965,0.14877982,0.0827589,-0.0898896,0.38789862,0.40455487,0.0,0.92969024,0.63326836,0.44473583,0.21498679,0.24115431,0.10126172,inf,inf,inf,inf,1,1,1,1,2,0,2,2,1,1,1
13972000,1696000,28.452394800000004,-13.8671276,-0.07330037,0.029572945,-0.8671139,-0.022291481,-0.0032633767,0.0,-0.020140136,0.0067583574,-0.5965576,-0.588198,-0.06255691,-0.0080844965,0.14877982,0.07757174,0.013894299,0.3402568,0.4044423,0.0,0.99659854,0.5965576,0.42849705,0.21238211,0.22989345,0.098707676,inf,inf,inf,inf,1,1,1,1,2,0,2,2,1,1,1
14068000,1696000,28.452394800000004,-13.8671276,-0.076503076,0.029680911,-0.92553025,-0.022291481,-0.0032633767,0.0,-0.015212214,0.0056015723,-0.56201744,-0.5569424,-0.06255691,-0.0080844965,0.14877982,0.096766286,0.0023349784,0.30366236,0.40436748,0.0,1.055015,0.56201744,0.44408017,0.21449667,0.2371944,0.099892944,inf,inf,inf,inf,1,1,1,1,2,0,2,2,1,1,1
14172000,1696000,28.452394800000004,-13.8671276,-0.079356976,0.029965641,-0.9858734,-0.022291481,-0.0032633767,0.0,-0.011492726,0.002478942,-0.5323081,-0.53065115,-0.06255691,-0.0080844965,0.14877982,0.061181035,-0.03973969,0.38108787,0.4043484,0.0,1.1153581,0.5323081,0.42801952,0.21194197,0.22651298,0.09745689,inf,inf,inf,inf,1,1,1,1,2,0,2,2,1,1,1
14268000,1696000,28.452394800000004,-13.8671276,-0.083298504,0.030770678,-1.0386175,-0.022291481,-0.0032633767,0.0,-0.009317541,0.002868454,-0.5033693,-0.5044173,-0.06255691,-0.0080844965,0.14877982,0.07354565,0.065261506,0.3336463,0.40425622,0.0,1.1681021,0.5033693,0.4434285,0.21399651,0.23368801,0.098621204,inf,inf,inf,inf,1,1,1,1,2,0,2,2,1,1,1
14372000,1696000,28.452394800000004,-13.8671276,-0.086467855,0.031587575,-1.0919174,-0.022291481,-0.0032633767,0.0,-0.0056698625,0.004194147,-0.47722206,-0.4799616,-0.06255691,-0.0080844965,0.14877982,0.08658635,-0.020009268,0.20283645,0.40436125,0.0,1.221402,0.47722206,0.42753604,0.211503,0.2235119,0.09630408,inf,inf,inf,inf,1,1,1,1,2,0,2,2,1,1,1
14468000,1696000,28.452394800000004,-13.8671276,-0.08930908,0.031911727,-1.1397521,-0.022291481,-0.0032633767,0.0,-0.0014163906,0.0025209447,-0.45785633,-0.46264285,-0.06255691,-0.0080844965,0.14877982,-0.031173315,0.036005825,0.26395357,0.40440848,0.0,1.2692368,0.45785633,0.44278616,0.21350068,0.23058622,0.097456664,inf,inf,inf,inf,1,1,1,1,2,0,2,2,1,1,1
14572000,1696000,28.452394800000004,-13.8671276,-0.09164701,0.03236854,-1.1885009,-0.022291481,-0.0032633767,0.0,-0.001011144,0.0020162466,-0.43151143,-0.43784067,-0.06255691,-0.0080844965,0.14877982,0.066800386,-0.036579743,0.23280269,0.4042465,0.0,1.3179855,0.43151143,0.42705065,0.21105388,0.22087112,0.095248,inf,inf,inf,inf,1,1,1,1,2,0,2,2,1,1,1
14668000,1696000,28.452394800000004,-13.8671276,-0.09410641,0.03304655,-1.2325344,-0.022291481,-0.0032633767,0.0,0.00095275015,0.002228871,-0.41409478,-0.42259267,-0.06255691,-0.0080844965,0.14877982,0.022178719,0.008432674,0.21669081,0.40404695,0.0,1.3620191,0.41409478,0.44215629,0.2129919,0.22785991,0.0963919,inf,inf,inf,inf,1,1,1,1,2,0,2,2,1,1,1
14772000,1696000,28.452394800000004,-13.8671276,-0.095733926,0.03373393,-1.277447,-0.022291481,-0.0032633767,0.0,0.0023506861,0.00238769,-0.39014935,-0.40025604,-0.06255691,-0.0080844965,0.14877982,-0.06578056,-0.07593683,0.17490889,0.40392092,0.0,1.4069316,0.39014935,0.42657045,0.21057315,0.21848541,0.09427735,inf,inf,inf,inf,1,1,1,1,2,0,2,2,1,1,1
14868000,1696000,28.452394800000004,-13.8671276,-0.09646054,0.034191407,-1.3173276,-0.022291481,-0.0032633767,0.0,0.0059746527,0.000118043376,-0.37233242,-0.38412634,-0.06255691,-0.0080844965,0.14877982,0.020025326,0.0024729813,0.27479973,0.4039855,0.0,1.4468123,0.37233242,0.4415411,0.21245609,0.22538616,0.09541963,inf,inf,inf,inf,1,1,1,1,2,0,2,2,1,1,1
14972000,1696000,28.452394800000004,-13.8671276,-0.09633314,0.03445287,-1.3587592,-0.022291481,-0.0032633767,0.0,0.008961267,-0.0023908454,-0.356379,-0.3697499,-0.06255691,-0.0080844965,0.14877982,0.105709895,0.017267302,0.21607894,0.40408915,0.0,1.4882438,0.356379,0.4260983,0.21008521,0.21629167,0.0934024,inf,inf,inf,inf,1,1,1,1,2,0,2,2,1,1,1
15068000,1696000,28.452394800000004,-13.8671276,-0.09539138,0.034830514,-1.3962603,-0.022291481,-0.0032633767,0.0,0.013326371,-0.0029078377,-0.34034836,-0.35580775,-0.06255691,-0.0080844965,0.14877982,0.03909139,-0.007880262,0.109816894,0.4039607,0.0,1.5257449,0.34034836,0.44094214,0.21193556,0.22313291,0.09455588,inf,inf,inf,inf,1,1,1,1,2,0,2,2,1,1,1
15172000,1696000,28.452394800000004,-13.8671276,-0.09401842,0.035200734,-1.4344368,-0.022291481,-0.0032633767,0.0,0.015509564,-0.0011324922,-0.32280883,-0.33961672,-0.06255691,-0.0080844965,0.14877982,0.102586865,-0.013672593,0.17534475,0.40464818,0.0,1.5639215,0.32280883,0.42573875,0.20963885,0.21176411,0.09264072,inf,inf,inf,inf,1,1,1,1,2,0,2,2,1,1,1
15268000,1696000,28.452394800000004,-13.8671276,-0.0933891,0.03551498,-1.4669582,-0.022291481,-0.0032633767,0.0,0.01793965,0.00014895486,-0.3100313,-0.32680815,-0.06255691,-0.0080844965,0.14877982,-0.014459452,0.019273741,0.017208045,0.40488222,0.0,1.5964428,0.3100313,0.44017154,0.21147206,0.21172811,0.09381097,inf,inf,inf,inf,1,1,1,1,2,0,2,2,1,1,1
15372000,1696000,28.452394800000004,-13.8671276,-0.09222442,0.035696264,-1.501706,-0.022291481,-0.0032633767,0.0,0.017063173,-0.0048114792,-0.29824844,-0.31575185,-0.06255691,-0.0080844965,0.14877982,-0.13657169,0.00031427768,0.10302848,0.40487897,0.0,1.6311907,0.29824844,0.42542508,0.20920715,0.20048623,0.09197291,inf,inf,inf,inf,1,1,1,1,2,0,2,2,1,1,1
15468000,1696000,28.452394800000004,-13.8671276,-0.091961026,0.035446048,-1.5334016,-0.022291481,-0.0032633767,0.0,0.013414288,-0.0060250266,-0.28643852,-0.3053758,-0.06255691,-0.0080844965,0.14877982,0.014105578,-0.0022627136,0.13561267,0.4045632,0.0,1.6628863,0.28643852,0.4390605,0.21099687,0.2055168,0.09315289,inf,inf,inf,inf,1,1,1,1,2,0,2,2,1,1,1
15572000,1696000,28.452394800000004,-13.8671276,-0.09144839,0.035092324,-1.5666193,-0.022291481,-0.0032633767,0.0,0.014283941,-0.0060363915,-0.27423942,-0.29465517,-0.06255691,-0.0080844965,0.14877982,0.03598368,0.0376622,0.10631419,0.40449372,0.0,1.6961039,0.27423942,0.4246201,0.20878197,0.20021948,0.09139474,inf,inf,inf,inf,1,1,1,1,2,0,2,2,1,1,1
15668000,1696000,28.452394800000004,-13.8671276,-0.091016114,0.03459553,-1.5957344,-0.022291481,-0.0032633767,0.0,0.018317476,-0.0061560324,-0.2608376,-0.28202787,-0.06255691,-0.0080844965,0.14877982,-0.019785801,-0.024339234,0.17397663,0.4047553,0.0,1.725219,0.2608376,0.4376149,0.21055017,0.20972283,0.09259311,inf,inf,inf,inf,1,1,1,1,2,0,2,2,1,1,1
15772000,1696000,28.452394800000004,-13.8671276,-0.0903356,0.034069497,-1.6247791,-0.022291481,-0.0032633767,0.0,0.01702316,-0.0060853343,-0.24668339,-0.26770088,-0.06255691,-0.0080844965,0.14877982,0.052879576,0.05412719,0.018566845,0.4052067,0.0,1.7542638,0.24668339,0.4234496,0.20836961,0.2082473,0.09090155,inf,inf,inf,inf,1,1,1,1,2,0,2,2,1,1,1
15868000,1696000,28.452394800000004,-13.8671276,-0.09108358,0.033825878,-1.6495751,-0.022291481,-0.0032633767,0.0,0.017249076,-0.0036997925,-0.24218981,-0.26194763,-0.06255691,-0.0080844965,0.14877982,0.006074551,0.020731967,0.025383195,0.40523058,0.0,1.7790598,0.24218981,0.43602377,0.21011421,0.22104509,0.09211733,inf,inf,inf,inf,1,1,1,1,2,0,2,2,1,1,1
15972000,1696000,28.452394800000004,-13.8671276,-0.09100543,0.033675686,-1.6758437,-0.022291481,-0.0032633767,0.0,0.01813058,-0.0030449294,-0.23510088,-0.25365156,-0.06255691,-0.0080844965,0.14877982,0.106595956,-0.02721045,0.0903597,0.40516004,0.0,1.8053284,0.23510088,0.4504214,0.21124612,0.2364968,0.09323025,inf,inf,inf,inf,1,1,1,1,2,0,2,2,1,1,0
16075999,1696000,28.452394800000004,-13.8671276,-0.09071124,0.033931483,-1.7011981,-0.022291481,-0.0032633767,0.0,0.01991649,-0.0029650358,-0.22731732,-0.2447708,-0.06255691,-0.0080844965,0.14877982,0.09510327,0.05135685,0.03353227,0.40492773,0.0,1.8306828,0.22731732,0.43430576,0.20899236,0.23507571,0.09148696,inf,inf,inf,inf,1,1,1,1,2,0,2,2,1,1,0
16171999,1696000,28.452394800000004,-13.8671276,-0.09114335,0.035137963,-1.7231363,-0.022291481,-0.0032633767,0.0,0.018510878,-0.0044568535,-0.21885745,-0.23480168,-0.06255691,-0.0080844965,0.14877982,-0.015571736,0.0011884538,-0.01115724,0.40500057,0.0,1.852621,0.21885745,0.44747317,0.21073009,0.25086975,0.09269602,inf,inf,inf,inf,1,1,1,1,2,0,2,2,1,1,0
16276000,1696000,28.452394800000004,-13.8671276,-0.091143146,0.035879392,-1.7480514,-0.022291481,-0.0032633767,0.0,0.019008337,-0.0042469325,-0.26831904,-0.28285897,-0.06255691,-0.0080844965,0.14877982,-0.006633752,0.036334507,-0.9800102,0.40483183,0.0,1.877536,0.26831904,0.4316828,0.20852731,0.24796957,0.09101071,inf,inf,inf,inf,1,1,1,1,2,0,2,2,1,1,0
16380000,1696000,28.452394800000004,-13.8671276,-0.091898225,0.03615736,-1.784779,-0.022291481,-0.0032633767,0.0,0.013449162,-0.001383434,-0.41745162,-0.43199688,-0.06255691,-0.0080844965,0.14877982,-0.071971655,-0.008410556,-1.8015051,0.40449232,0.0,1.9142636,0.41745162,0.44606346,0.2096332,0.2658366,0.09216772,inf,inf,inf,inf,1,1,1,1,2,0,2,2,1,1,0
16476000,1696000,28.452394800000004,-13.8671276,-0.092814796,0.036552496,-1.8354596,-0.022291481,-0.0032633767,0.0,0.0053330013,-0.00018892658,-0.6307168,-0.64449507,-0.06255691,-0.0080844965,0.14877982,-0.06261586,-0.05664428,-2.5491843,0.40426448,0.0,1.9649442,0.6307168,0.4294383,0.20811693,0.26021674,0.09062304,inf,inf,inf,inf,1,1,1,1,2,0,2,2,1,1,0
16580000,1696000,28.452394800000004,-13.8671276,-0.09501905,0.037116244,-1.9158641,-0.022291481,-0.0032633767,0.0,-0.00036602077,8.0504404e-05,-0.9542293,-0.96519953,-0.06255691,-0.0080844965,0.14877982,-0.045924317,-0.007584454,-3.5811381,0.40407574,0.0,2.045349,0.9542293,0.44412237,0.20921364,0.28003252,0.09180141,inf,inf,inf,inf,1,1,1,1,2,0,2,2,1,1,0
16683999,1696000,28.452394800000004,-13.8671276,-0.096827984,0.037626304,-2.034616,-0.022291481,-0.0032633767,0.0,0.0006815795,0.0025863238,-1.3726194,-1.380623,-0.06255691,-0.0080844965,0.14877982,0.029956408,0.054491278,-4.333474,0.40422457,0.0,2.1641006,1.3726194,0.42861137,0.20712562,0.2740723,0.09023225,inf,inf,inf,inf,1,1,1,1,2,0,2,2,1,1,0
16780000,1696000,28.452394800000004,-13.8671276,-0.098337874,0.03806506,-2.179295,-0.022291481,-0.0032633767,0.0,0.00073474477,0.0005063907,-1.7618823,-1.7628949,-0.06255691,-0.0080844965,0.14877982,0.009519586,-0.050805546,-3.7216504,0.4041274,0.0,2.3087797,1.7618823,0.44267735,0.20883672,0.29377154,0.0914985,inf,inf,inf,inf,1,1,1,1,2,0,2,2,1,1,0
16884000,1696000,28.452394800000004,-13.8671276,-0.09931763,0.038140964,-2.3744297,-0.022291481,-0.0032633767,0.0,0.0027606837,0.0009223725,-2.0853338,-2.0803905,-0.06255691,-0.0080844965,0.14877982,0.033893898,0.005178677,-2.6128774,0.40428656,0.0,2.5039144,2.0853338,0.4271959,0.20680258,0.28558278,0.08998284,inf,inf,inf,inf,1,1,1,1,2,0,2,2,1,1,0
16980000,1696000,28.452394800000004,-13.8671276,-0.10031803,0.03724214,-2.572324,-0.022291481,-0.0032633767,0.0,0.0050093927,-0.0023902494,-2.2939699,-2.277451,-0.06255691,-0.0080844965,0.14877982,0.038857657,-0.05645597,-2.062544,0.4042614,0.0,2.7018087,2.2939699,0.44183907,0.20851849,0.30478644,0.09127074,inf,inf,inf,inf,1,1,1,1,2,0,2,2,1,1,0
17084000,1696000,28.452394800000004,-13.8671276,-0.101205096,0.03630852,-2.8111372,-0.022291481,-0.0032633767,0.0,0.0050254595,-0.0041119764,-2.464917,-2.441706,-0.06255691,-0.0080844965,0.14877982,-0.021631056,0.036762755,-1.1912016,0.4044281,0.0,2.9406219,2.464917,0.42630988,0.20652786,0.2916247,0.089795336,inf,inf,inf,inf,1,1,1,1,2,0,2,2,1,1,0
17180000,1696000,28.452394800000004,-13.8671276,-0.10420227,0.036508333,-3.040867,-0.022291481,-0.0032633767,0.0,0.00021205502,5.0257488e-05,-2.5217354,-2.491773,-0.06255691,-0.0080844965,0.14877982,0.029676164,0.023903767,-0.26735103,0.40463147,0.0,3.1703517,2.5217354,0.4414632,0.2082454,0.30793238,0.09109928,inf,inf,inf,inf,1,1,1,1,2,0,2,2,1,1,0
17284000,1696000,28.452394800000004,-13.8671276,-0.10753629,0.037217345,-3.296841,-0.022291481,-0.0032633767,0.0,-0.0030068331,0.0030442476,-2.5021472,-2.470934,-0.06255691,-0.0080844965,0.14877982,0.03527077,0.007892791,0.54721904,0.40461588,0.0,3.4263256,2.5021472,0.42584157,0.20627774,0.29163322,0.089650474,inf,inf,inf,inf,1,1,1,1,2,0,2,2,1,1,0
17380000,1696000,28.452394800000004,-13.8671276,-0.11341783,0.038692717,-3.5304933,-0.022291481,-0.0032633767,0.0,-0.009393307,0.0041116993,-2.3968205,-2.3677385,-0.06255691,-0.0080844965,0.14877982,-0.0042440947,-0.025058568,1.5984354,0.40450725,0.0,3.659978,2.3968205,0.44136527,0.20798293,0.3052368,0.09096171,inf,inf,inf,inf,1,1,1,1,2,0,2,2,1,1,0
17484000,1696000,28.452394800000004,-13.8671276,-0.11965395,0.040416133,-3.7708888,-0.022291481,-0.0032633767,0.0,-0.015593222,0.0059071276,-2.1894884,-2.166033,-0.06255691,-0.0080844965,0.14877982,-0.0073350673,0.03702809,2.2207475,0.4047285,0.0,3.9003735,2.1894884,0.42566973,0.20604776,0.28710884,0.089540236,inf,inf,inf,inf,1,1,1,1,2,0,2,2,1,1,0
17580000,1696000,28.452394800000004,-13.8671276,-0.12767024,0.04298929,-3.976619,-0.022291481,-0.0032633767,0.0,-0.0186094,0.006986804,-2.0026865,-1.9873825,-0.06255691,-0.0080844965,0.14877982,0.049435895,-0.013644712,1.691075,0.40501538,0.0,4.106104,2.0026865,0.44139552,0.20664707,0.298291,0.09061949,inf,inf,inf,inf,1,1,1,1,2,0,2,2,1,1,0
17684000,1696000,28.452394800000004,-13.8671276,-0.13480332,0.045509454,-4.1842523,-0.022291481,-0.0032633767,0.0,-0.014640276,0.006847917,-1.864044,-1.8580436,-0.06255691,-0.0080844965,0.14877982,0.11250791,-0.0017187776,1.1728107,0.40527326,0.0,4.313737,1.864044,0.425672,0.20584767,0.27969766,0.08946309,inf,inf,inf,inf,1,1,1,1,2,0,2,2,1,1,0
17780000,1696000,28.452394800000004,-13.8671276,-0.14032197,0.04795983,-4.3714094,-0.022291481,-0.0032633767,0.0,-0.009724377,0.0050243945,-1.7703232,-1.7777212,-0.06255691,-0.0080844965,0.14877982,0.10033076,0.03656188,1.0345569,0.40525526,0.0,4.500894,1.7703232,0.44145668,0.20644729,0.28986993,0.09055267,inf,inf,inf,inf,1,1,1,1,2,0,2,2,1,1,0
17884000,1696000,28.452394800000004,-13.8671276,-0.14467557,0.05019237,-4.5621657,-0.022291481,-0.0032633767,0.0,-0.0025413092,0.0041128467,-1.6714636,-1.6895972,-0.06255691,-0.0080844965,0.14877982,0.04020374,-0.048256163,0.8885171,0.40525892,0.0,4.6916504,1.6714636,0.42568618,0.20566162,0.2729888,0.089411214,inf,inf,inf,inf,1,1,1,1,2,0,2,2,1,1,0
17980000,1696000,28.452394800000004,-13.8671276,-0.14825457,0.05261141,-4.73161,-0.022291481,-0.0032633767,0.0,0.001389677,0.0023991698,-1.6043237,-1.6321921,-0.06255691,-0.0080844965,0.14877982,0.03787361,-0.009996532,0.72312725,0.40515056,0.0,4.8610945,1.6043237,0.44151127,0.20736349,0.2829659,0.09075091,inf,inf,inf,inf,1,1,1,1,2,0,2,2,1,1,0
18084000,1696000,28.452394800000004,-13.8671276,-0.15080613,0.05455851,-4.9071493,-0.022291481,-0.0032633767,0.0,0.0055840034,0.0006491161,-1.5320334,-1.5683945,-0.06255691,-0.0080844965,0.14877982,0.03398943,0.028060384,0.6523383,0.40495077,0.0,5.036634,1.5320334,0.4257158,0.20546988,0.2669896,0.08937192,inf,inf,inf,inf,1,1,1,1,2,0,2,2,1,1,0
18180000,1696000,28.452394800000004,-13.8671276,-0.15313874,0.056773067,-5.0638123,-0.022291481,-0.0032633767,0.0,0.0036834006,0.0014537489,-1.4672854,-1.5115801,-0.06255691,-0.0080844965,0.14877982,0.017576791,0.030679569,0.66466814,0.40494898,0.0,5.193297,1.4672854,0.44155392,0.20606959,0.27647594,0.090477906,inf,inf,inf,inf,1,1,1,1,2,0,2,2,1,1,0
18284000,1696000,28.452394800000004,-13.8671276,-0.15491252,0.05856691,-5.2248197,-0.022291481,-0.0032633767,0.0,0.004592194,0.00019373678,-1.4032224,-1.4532528,-0.06255691,-0.0080844965,0.14877982,0.054060057,-0.06043573,0.60136986,0.40500373,0.0,5.3543043,1.4032224,0.42575118,0.205315,0.26125044,0.0893589,inf,inf,inf,inf,1,1,1,1,2,0,2,2,1,1,0
18380000,1696000,28.452394800000004,-13.8671276,-0.1560982,0.059635013,-5.368009,-0.022291481,-0.0032633767,0.0,0.00729683,-0.0028556997,-1.3509474,-1.405767,-0.06255691,-0.0080844965,0.14877982,-0.0401861,-0.044242926,0.5445098,0.4049309,0.0,5.4974937,1.3509474,0.4415692,0.20592922,0.27013436,0.09047557,inf,inf,inf,inf,1,1,1,1,2,0,2,2,1,1,0
18484000,1696000,28.452394800000004,-13.8671276,-0.15639238,0.06016481,-5.516788,-0.022291481,-0.0032633767,0.0,0.009825963,-0.0048736343,-1.2967618,-1.3552973,-0.06255691,-0.0080844965,0.14877982,0.03055125,-0.10554436,0.5379412,0.40495428,0.0,5.6462727,1.2967618,0.42578098,0.20517951,0.25557944,0.08935966,inf,inf,inf,inf,1,1,1,1,2,0,2,2,1,1,0
18580000,1696000,28.452394800000004,-13.8671276,-0.15611863,0.059956294,-5.6495824,-0.022291481,-0.0032633767,0.0,0.010700845,-0.005816721,-1.25174,-1.3136238,-0.06255691,-0.0080844965,0.14877982,0.0027950152,-0.046957064,0.54290885,0.40480775,0.0,5.779067,1.25174,0.44154808,0.205793,0.26398572,0.09048027,inf,inf,inf,inf,1,1,1,1,2,0,2,2,1,1,0
18684000,1696000,28.452394800000004,-13.8671276,-0.15537293,0.05959802,-5.787075,-0.022291481,-0.0032633767,0.0,0.008076407,-0.009581885,-1.2032676,-1.2670261,-0.06255691,-0.0080844965,0.14877982,-0.050301574,-0.021825165,0.45808774,0.40461653,0.0,5.9165597,1.2032676,0.42579222,0.20505781,0.25006,0.08937087,inf,inf,inf,inf,1,1,1,1,2,0,2,2,1,1,0
18788000,1696000,28.452394800000004,-13.8671276,-0.15460928,0.06014154,-5.9197435,-0.022291481,-0.0032633767,0.0,0.0061131776,-0.008799255,-1.162255,-1.2275349,-0.06255691,-0.0080844965,0.14877982,-0.02337637,-0.003881614,0.48822534,0.4048255,0.0,6.049228,1.162255,0.44284067,0.20619681,0.25863272,0.09069351,inf,inf,inf,inf,1,1,1,1,2,0,2,2,1,1,0
