timestamp,gyro_rad[0],gyro_rad[1],gyro_rad[2],gyro_integral_dt,accelerometer_timestamp_relative,accelerometer_m_s2[0],accelerometer_m_s2[1],accelerometer_m_s2[2],accelerometer_integral_dt
1192000,0.0031579742,-0.0111193415,-0.008409392,4000,0,-0.2408087,0.16725604,-10.001954,4000
1300000,0.00829103,-0.003025205,0.003834542,4000,0,-0.16137019,0.23626545,-9.947274,4000
1304000,0.0033063607,-0.0019533758,0.0010519436,4000,0,-0.15997837,0.23552059,-9.916234,4000
1308000,-0.0035169162,-0.0048312536,0.0044027013,4000,0,-0.23231414,0.2545304,-9.9109955,4000
1312000,-0.004373984,-0.0073366207,0.009990946,4000,0,-0.19039628,0.2204511,-9.916949,4000
1316000,-0.0012155428,-0.00805666,-8.888751e-05,4000,0,-0.19429994,0.2230178,-9.943116,4000
1320000,0.00096513564,-0.0068105776,-0.005434614,4000,0,-0.23285626,0.25572252,-9.968334,4000
1324000,-0.00021091003,0.00021157907,-0.003070909,4000,0,-0.24724339,0.25354087,-9.995117,4000
1328000,-0.006910082,-0.005524135,-0.0012703774,4000,0,-0.2258892,0.21247704,-9.929575,4000
1332000,-0.010401021,-0.009816669,-0.000370818,4000,0,-0.22905506,0.20289268,-9.926108,4000
1336000,-0.010934597,-0.0038260072,-9.417348e-05,4000,0,-0.30363065,0.16636705,-9.938398,4000
1340000,-0.016300913,-0.003848449,-0.0028483977,4000,0,-0.1964425,0.16004346,-9.902668,4000
1344000,-0.0076178336,-0.006803972,-0.0030141622,4000,0,-0.11411343,0.18757562,-9.937008,4000
1348000,0.001510324,-0.0034615544,0.003291812,4000,0,-0.19140004,0.16731775,-9.98205,4000
1352000,-0.0016734495,-0.004202661,0.0041757375,4000,0,-0.28855398,0.17992304,-9.996114,4000
1360000,0.00675006,0.0006373318,0.007991517,4000,0,-0.19317588,0.1791592,-9.90356,4000
1364000,0.0025543123,-0.0061966297,0.00507774,4000,0,-0.198616,0.15665895,-9.905176,4000
1372000,-0.0034853772,-0.0053059254,0.0019968536,4000,0,-0.20947778,0.14578237,-9.9412155,4000
1376000,-0.0013432433,-0.005400543,0.005817186,4000,0,-0.20526755,0.12096661,-9.922711,4000
1380000,-0.0049934164,-0.007856635,0.00034923523,4000,0,-0.19943474,0.16783252,-10.003072,4000
1388000,-0.004561737,-0.00603448,-0.0055775493,4000,0,-0.20133416,0.2251525,-9.970411,4000
1392000,-0.00072700204,-0.0066040815,-0.002214163,4000,0,-0.15288159,0.21681352,-9.915536,4000
1400000,-0.005625867,-0.0031293198,0.00909817,4000,0,-0.2335877,0.26726195,-9.946661,4000
1404000,-0.000741833,-0.006385103,0.004951824,4000,0,-0.2217898,0.25099865,-9.966931,4000
1408000,0.0006801065,-0.010353352,0.0027957251,4000,0,-0.24255675,0.20787728,-9.937983,4000
1416000,-0.004314713,0.0007485694,0.0037441312,4000,0,-0.20208001,0.26266062,-10.024985,4000
1420000,-0.0014854776,0.0011846496,0.0056396686,4000,0,-0.1665317,0.28483495,-9.963138,4000
1424000,-0.0010178728,-0.010586393,0.005943726,4000,0,-0.12851664,0.25304976,-9.897738,4000
1432000,-0.004636541,-0.010144991,-0.0019409884,4000,0,-0.19106151,0.20281586,-10.02458,4000
1440000,-0.00093401305,-0.0067009456,0.007842169,4000,0,-0.25046766,0.18821421,-9.952548,4000
1444000,-0.00037048574,-0.008770449,0.0097455485,4000,0,-0.2118618,0.25636646,-9.904377,4000
1448000,-0.008405955,-0.009347715,0.002312994,4000,0,-0.23962022,0.2347103,-9.900027,4000
1452000,-0.0036212758,-0.0068545965,0.0028112994,4000,0,-0.29342657,0.21195418,-9.89367,4000
1456000,-9.787512e-05,-0.009150771,0.0019097253,4000,0,-0.29452536,0.21800734,-9.855605,4000
1464000,-2.9987077e-05,-0.006724255,0.002287079,4000,0,-0.21894912,0.13427661,-9.993549,4000
1468000,-0.0037035448,-0.008046484,0.0035795942,4000,0,-0.23165311,0.19027121,-9.957826,4000
1472000,-0.0007394288,-0.00883596,-0.000878475,4000,0,-0.23229337,0.21919836,-9.964935,4000
1476000,0.0006074393,-0.0027179357,-0.004156228,4000,0,-0.25014117,0.2515421,-9.930281,4000
1480000,-0.004498489,-0.0018251876,-0.003963978,4000,0,-0.19703944,0.2789215,-9.916921,4000
1488000,-0.0007389217,-0.005524559,-0.0028587768,4000,0,-0.22945318,0.21148257,-9.936302,4000
1492000,-0.004338729,-0.007207108,-0.0026388145,4000,0,-0.20960285,0.21626095,-9.968708,4000
1500000,-0.0013995338,-0.004661225,0.0039432556,4000,0,-0.2693398,0.28457806,-9.972599,4000
1504000,0.0017333453,-0.010572916,0.00027519834,4000,0,-0.20750345,0.28279012,-10.036033,4000
1508000,-1.1522389e-05,-0.0133842705,0.00023492843,4000,0,-0.16402811,0.26013583,-10.004425,4000
1512000,-0.0010278857,-0.016898822,0.0013432944,4000,0,-0.21307607,0.26206058,-9.9515295,4000
1516000,-0.00094606716,-0.012938091,0.0018755571,4000,0,-0.23588197,0.25594774,-9.917561,4000
1520000,-0.0011420968,-0.010240342,-0.0015006523,4000,0,-0.24792698,0.2169675,-9.912309,4000
1524000,-0.0025530835,-0.0105688125,-0.002438673,4000,0,-0.24688692,0.25085098,-9.935488,4000
1528000,-0.0073340763,-0.0029893292,-0.0007183774,4000,0,-0.2555362,0.28690326,-9.977187,4000
1536000,-0.0008482891,-0.0037895245,-0.0020481565,4000,0,-0.14407836,0.13911371,-9.962495,4000
1540000,0.0005104606,-0.0075023556,-0.003859611,4000,0,-0.20033987,0.16056474,-9.969437,4000
1544000,-0.0046907295,-0.004389915,-0.0040974277,4000,0,-0.30028105,0.19063166,-10.010806,4000
1552000,-0.002809129,-0.0036221805,-0.002089033,4000,0,-0.21484357,0.19140938,-9.952788,4000
1556000,-0.0024147318,-0.0026810572,0.0015106,4000,0,-0.23307744,0.19675153,-9.979401,4000
1560000,-0.006037097,-0.0020451061,-0.0025336156,4000,0,-0.30882594,0.20853285,-9.921799,4000
1564000,-0.005227279,-0.0061461567,-0.0008332728,4000,0,-0.29565823,0.15509874,-9.871297,4000
1568000,0.0018881417,-0.010464245,0.005385214,4000,0,-0.19138789,0.12857348,-9.853985,4000
1576000,-0.006093748,-0.004048122,0.002638365,4000,0,-0.17130971,0.21890102,-9.983576,4000
1580000,-0.0040240195,-0.0010302489,0.0034100548,4000,0,-0.20201717,0.25907323,-9.974087,4000
1584000,-0.0021065974,-0.0052745547,0.0020842021,4000,0,-0.16469039,0.22647771,-9.945434,4000
1588000,-0.0041640517,-0.0070119603,-0.0012380589,4000,0,-0.18187279,0.1838863,-9.892673,4000
1592000,-0.0016543721,-0.0045780134,0.0012049141,4000,0,-0.20589274,0.21263908,-9.924832,4000
1596000,-0.0014992822,-0.0011171731,0.005451275,4000,0,-0.17197834,0.21174055,-9.899015,4000
1600000,-0.0036877568,-0.0024912318,0.0016395012,4000,0,-0.21152164,0.17942917,-9.912548,4000
1604000,-0.006751635,-0.006346306,0.0018570072,4000,0,-0.2784029,0.18926306,-9.904213,4000
1608000,-0.0051538525,-0.010544747,0.0064364937,4000,0,-0.21781833,0.18086411,-9.879922,4000
1612000,0.00081399194,-0.009497912,0.008499722,4000,0,-0.18450922,0.20940624,-9.95019,4000
1620000,-0.0047051795,-0.002604707,-0.0042177374,4000,0,-0.21116687,0.28637677,-10.020726,4000
1624000,-0.0048326966,-0.0023808172,-0.0033235673,4000,0,-0.19526397,0.2525227,-9.981572,4000
1632000,-0.0025591135,-0.0052623674,-0.0030638136,4000,0,-0.26261878,0.21741877,-9.934749,4000
1636000,-0.00032494735,0.0014718985,-0.0013642992,4000,0,-0.2478366,0.22000068,-9.92067,4000
1640000,0.002722196,-0.005997758,0.0017308774,4000,0,-0.20363511,0.28841904,-9.990466,4000
1644000,-0.004700371,-0.011851963,0.00093579135,4000,0,-0.19938464,0.25160682,-9.982416,4000
1648000,-0.00637632,-0.009676074,-0.0037729354,4000,0,-0.21089818,0.21233918,-9.917739,4000
1656000,0.0016817808,-0.011056357,0.0050279535,4000,0,-0.22771777,0.20293859,-9.913026,4000
1660000,-0.00026076348,-0.008031081,0.0064247823,4000,0,-0.18628484,0.20339178,-9.922595,4000
1664000,0.0016883407,-0.006016517,0.002039618,4000,0,-0.20987628,0.177284,-9.909027,4000
1668000,-0.0018377608,-0.002685673,-0.0022874956,4000,0,-0.24935079,0.18045777,-9.933318,4000
1672000,-0.0013509521,-0.0075746505,-0.0027409468,4000,0,-0.24857186,0.154523,-9.958939,4000
1676000,-0.00032818996,-0.0060098926,-0.003135638,4000,0,-0.21984746,0.18641816,-9.977293,4000
1680000,-0.0026913031,-0.0054351236,-0.0013518218,4000,0,-0.19298697,0.2845782,-10.081232,4000
1688000,0.0020959158,-0.0056863786,0.009779526,4000,0,-0.22672687,0.13192189,-9.917526,4000
1696000,2.0387894e-05,-0.00773218,-0.0023727666,4000,0,-0.15003365,0.16673589,-9.980913,4000
1700000,0.002730005,-0.0075294967,0.00079852797,4000,0,-0.17805229,0.16347446,-10.017004,4000
1708000,-0.0027678686,-0.008033007,-0.0021834155,4000,0,-0.2180189,0.2083151,-9.906219,4000
1716000,-0.0044735237,-0.01050207,0.0021240383,4000,0,-0.24512471,0.23534669,-10.023304,4000
1720000,-0.0009649777,-0.009942896,0.0062739523,4000,0,-0.21340443,0.23672783,-9.978592,4000
1724000,0.00015558045,-0.003056474,0.0066054994,4000,0,-0.18399467,0.22163914,-9.931791,4000
1732000,-0.003844656,-0.0030703628,-0.0021171053,4000,0,-0.2741873,0.17907815,-9.964764,4000
1736000,-0.0048932564,-0.0073045986,0.0015105875,4000,0,-0.25922304,0.24953957,-10.012262,4000
1744000,-0.00013128409,-0.009761091,-0.0034842556,4000,0,-0.2240691,0.17101327,-9.976526,4000
1748000,0.0018301408,-0.006208867,-0.0025662913,4000,0,-0.238375,0.19864784,-10.032683,4000
1752000,0.002189627,-0.006647312,-0.002204512,4000,0,-0.20996219,0.18025269,-9.971417,4000
1756000,0.0004278951,-0.010471293,-0.0023058425,4000,0,-0.20336698,0.15678847,-9.970483,4000
1760000,0.0012919492,-0.0065220096,0.0021048195,4000,0,-0.25119188,0.14660814,-9.966091,4000
1764000,-0.00046994266,-0.0065721283,0.009983434,4000,0,-0.2470309,0.13604765,-9.9389,4000
1768000,-0.003969583,-0.009271581,0.005107719,4000,0,-0.23196359,0.19213535,-9.981863,4000
1772000,-0.003366944,-0.002745241,-0.0033507762,4000,0,-0.25258303,0.25006995,-9.880097,4000
1780000,-0.0014494951,-0.008594957,-0.00027040305,4000,0,-0.24977455,0.24155782,-10.01169,4000
1784000,-9.637049e-05,-0.006484768,-0.0007672736,4000,0,-0.22633009,0.23381841,-9.98585,4000
1788000,0.00023971307,-0.0067646173,0.004389504,4000,0,-0.20381323,0.22484955,-9.982332,4000
1792000,-0.002462301,-0.0024409562,0.0035701627,4000,0,-0.19102192,0.1658403,-9.978996,4000
1796000,-0.0026166257,-0.003219466,0.0066673434,4000,0,-0.19675745,0.1747665,-9.93417,4000
1800000,-0.007868534,-0.006268059,0.0021864453,4000,0,-0.2500097,0.17138101,-9.906774,4000
1804000,-0.0070503415,-0.006972788,-0.0089032445,4000,0,-0.22820461,0.12903939,-9.894676,4000
1808000,-0.0010767399,-0.005070219,-0.00934741,4000,0,-0.151345,0.23672588,-9.939545,4000
1812000,-0.0031089152,-0.00053695677,-0.0039355066,4000,0,-0.21801756,0.22926597,-9.947479,4000
1816000,-0.0055998783,0.0013286126,-0.0020784382,4000,0,-0.2839753,0.19457626,-10.022328,4000
1820000,-0.0050481246,-0.0034147338,-0.001271312,4000,0,-0.1987674,0.22005318,-10.041304,4000
1828000,-0.00086446,-0.006786663,-0.0021220697,4000,0,-0.21604253,0.22594222,-9.888419,4000
1832000,0.0006848107,-0.005266312,0.0012538717,4000,0,-0.25235564,0.25219935,-9.988002,4000
1836000,-6.0974962e-05,-0.00082727463,-0.0020279346,4000,0,-0.26132116,0.19889952,-10.028053,4000
1840000,-0.0016510608,-0.0025450825,0.00049464457,4000,0,-0.24688436,0.23311247,-9.939537,4000
1844000,-0.0032255265,-0.0041776565,0.00525902,4000,0,-0.21216677,0.22844031,-9.963752,4000
1848000,-0.004094561,-0.0034577001,-0.0020158833,4000,0,-0.19917388,0.14875908,-9.974827,4000
1856000,0.010267351,-0.008016799,0.005332004,4000,0,-0.28146166,0.25135374,-9.992013,4000
1860000,0.0039559,-0.0045631765,0.002341761,4000,0,-0.32678923,0.2267737,-10.014362,4000
1864000,0.0009275372,-0.005991013,-0.000654118,4000,0,-0.2709055,0.12913574,-9.9864235,4000
1872000,0.0038568801,-0.003164552,0.00406309,4000,0,-0.30210096,0.23355012,-9.978487,4000
1876000,-0.00019250835,-0.0106208995,0.0020540967,4000,0,-0.25075078,0.18336253,-9.990145,4000
1880000,-0.003488681,-0.010118857,-0.0028617077,4000,0,-0.21194622,0.19033386,-9.984864,4000
1884000,-0.0038965882,0.0012504015,-0.003609253,4000,0,-0.25702772,0.18851334,-9.905804,4000
1888000,-0.006881575,-0.00032518743,-0.0016225567,4000,0,-0.23888181,0.19368082,-9.86352,4000
1896000,0.00011115985,-0.0073742885,0.00086721353,4000,0,-0.15744875,0.23463579,-9.9015875,4000
1900000,0.00040370948,-0.010867879,-7.421274e-05,4000,0,-0.21602021,0.22020125,-9.9252615,4000
1904000,-0.005751431,-0.0025964112,-0.0033123256,4000,0,-0.24415812,0.17987536,-9.88455,4000
1912000,-0.012430284,-0.005748134,-0.0046446505,4000,0,-0.20710984,0.21000724,-9.881017,4000
1916000,-0.0055311914,-0.002449321,-0.003809236,4000,0,-0.2660899,0.14608215,-9.914534,4000
1920000,0.0016637244,-0.009059459,-0.0020108067,4000,0,-0.22238667,0.17887689,-9.954087,4000
1924000,0.0050789486,-0.009732193,0.0025967276,4000,0,-0.18161505,0.20129731,-9.951384,4000
1932000,-0.0029184301,-0.008682635,-0.0054876306,4000,0,-0.24253285,0.25234053,-9.939683,4000
1936000,-0.001818429,-0.008075764,-0.00020757089,4000,0,-0.20603646,0.23741221,-9.87881,4000
1940000,-0.0017441569,-0.009191121,-0.0019108471,4000,0,-0.22108428,0.14561929,-9.845197,4000
1948000,0.00040091056,-0.0023984925,-0.0017727723,4000,0,-0.2146676,0.15626015,-9.940549,4000
1952000,0.001396157,-0.005711208,0.012627911,4000,0,-0.22302277,0.22254099,-9.889565,4000
1956000,-0.00026533057,-0.009624223,0.008280957,4000,0,-0.25061086,0.23062725,-9.904149,4000
1960000,0.0010384946,-0.0051988843,0.0022231757,4000,0,-0.2664216,0.23535554,-9.998166,4000
1964000,-0.00020766829,-0.013687108,0.007532574,4000,0,-0.23901072,0.26008084,-10.024165,4000
1968000,-0.00092153176,-0.017574055,0.004822667,4000,0,-0.24027294,0.15742885,-9.994559,4000
1976000,-0.0022840956,-0.008394038,0.0027335095,4000,0,-0.21322054,0.3052755,-9.889355,4000
1980000,-0.0025654323,-0.001468826,0.0027659421,4000,0,-0.2222344,0.20867951,-9.971667,4000
1984000,-0.008165444,-0.0062590544,-0.00131978,4000,0,-0.22348818,0.11133942,-9.960295,4000
1988000,-0.004547608,-0.0073056906,0.004065637,4000,0,-0.24264279,0.121809795,-9.973282,4000
1992000,-0.002278495,-0.0035585165,0.0054679136,4000,0,-0.23978235,0.18134531,-9.923514,4000
1996000,0.00041995177,-0.0012233482,0.0020620932,4000,0,-0.18908115,0.22725515,-9.912207,4000
2000000,0.00028038677,-0.00042866037,-0.0043508178,4000,0,-0.18142848,0.24353983,-9.987816,4000
2004000,0.0020991187,8.3849794e-05,-0.0014236515,4000,0,-0.2895346,0.25602606,-9.926084,4000
2008000,0.0060272077,-0.0024357364,0.0019203213,4000,0,-0.3145102,0.30006287,-9.892114,4000
2016000,0.0015536578,-0.0061299615,0.001571653,4000,0,-0.2724187,0.2055233,-9.932443,4000
2020000,0.00023175638,-0.0044921804,-0.00064414006,4000,0,-0.2694366,0.27352017,-9.983474,4000
2024000,0.0022818826,-0.0053820037,-0.0031408232,4000,0,-0.21914247,0.22587301,-9.977161,4000
2032000,0.004119436,-0.0024193588,0.0013207397,4000,0,-0.2649387,0.24450512,-9.863764,4000
2040000,-0.005367282,0.0015316115,-7.2343915e-05,4000,0,-0.20181836,0.23376898,-9.913235,4000
2044000,-0.0035293263,-0.0026286873,0.0011279045,4000,0,-0.22579584,0.21652251,-9.961978,4000
2048000,-0.0007476128,-0.009741787,0.0039732917,4000,0,-0.21277368,0.19661589,-9.929271,4000
2052000,-0.0015267663,-0.009885484,0.0012647199,4000,0,-0.123557694,0.18894309,-9.902078,4000
2056000,-0.0048534614,-0.006148998,-0.0049262764,4000,0,-0.104381815,0.18286045,-9.9167385,4000
2064000,0.001622905,-0.0017049565,0.006442256,4000,0,-0.19826177,0.23062873,-9.862309,4000
2068000,-0.0045119156,-0.0012890305,0.00013761505,4000,0,-0.17423052,0.23814973,-9.861566,4000
2072000,-0.008131684,-0.008935418,-0.0029472536,4000,0,-0.22689886,0.22205329,-9.909704,4000
2076000,-0.00060972356,-0.010123298,-0.001186845,4000,0,-0.18113124,0.21223712,-9.913698,4000
2084000,-0.001130288,-0.0067531923,-0.0011653878,4000,0,-0.24070235,0.283231,-9.961816,4000
2092000,-0.002913559,-0.005227734,0.0027733166,4000,0,-0.18738416,0.13990122,-9.892498,4000
2096000,-0.0033342799,-0.004753558,0.0051662736,4000,0,-0.18303485,0.16321373,-9.924721,4000
2104000,-0.0019433162,-0.005340885,0.0039439355,4000,0,-0.24200653,0.31162268,-9.953385,4000
2108000,-0.00069833006,-0.007010874,-0.0004924454,4000,0,-0.22949249,0.2574385,-9.890653,4000
2112000,-0.0041834647,-0.012861339,-0.00040857622,4000,0,-0.30131117,0.21208628,-9.885151,4000
2116000,-0.007884407,-0.007113397,0.0022713526,4000,0,-0.29674116,0.15717626,-9.948204,4000
2120000,-0.002169401,0.0002862203,-0.0033585436,4000,0,-0.2746904,0.16190396,-9.959382,4000
2124000,0.0064127287,-0.008504944,-0.007383634,4000,0,-0.21461257,0.17919698,-9.905787,4000
2128000,0.002918953,-0.0086711915,-0.0013678636,4000,0,-0.2508136,0.15581812,-9.919905,4000
2132000,-0.0043675047,-0.0065021655,-0.0014321088,4000,0,-0.3162445,0.16386372,-9.990093,4000
2136000,-0.0060340525,-0.011782949,-0.002817918,4000,0,-0.24828865,0.2641599,-9.950761,4000
2140000,-0.003836849,-0.009438168,0.001941927,4000,0,-0.18825816,0.23712374,-9.922762,4000
2144000,0.0012694768,-0.00956188,0.006676824,4000,0,-0.17779624,0.14974637,-9.8859825,4000
2152000,-0.0075596734,-0.0038337756,-0.005022533,4000,0,-0.15409608,0.27347702,-9.890337,4000
2156000,-0.009120427,-0.004079519,0.004559834,4000,0,-0.16338494,0.24450915,-9.904046,4000
2160000,-0.00031770632,-0.0070785214,0.0055362945,4000,0,-0.1656094,0.20674595,-9.9272175,4000
2168000,-0.003552849,-0.0070556393,0.00028876544,4000,0,-0.27646658,0.239796,-9.996405,4000
2172000,-0.0024109308,-0.008383283,0.0019405856,4000,0,-0.27273214,0.25604716,-9.967029,4000
2176000,0.0039571426,-0.0073842853,0.00393217,4000,0,-0.29024476,0.28972095,-9.879652,4000
2184000,-0.007051908,-0.007279054,-0.0044521354,4000,0,-0.20148337,0.20980713,-9.967696,4000
2188000,-0.0082988385,-0.0011752842,-0.0038932639,4000,0,-0.21871182,0.19163166,-10.047732,4000
2192000,-0.0035387161,0.0069126505,-0.0043883757,4000,0,-0.19099633,0.2093208,-10.057194,4000
2196000,0.0036816935,0.0035390223,-0.0022624072,4000,0,-0.2763957,0.16489153,-9.964997,4000
2200000,0.00637535,-0.0024830028,-0.0030072234,4000,0,-0.28282455,0.17158395,-9.951678,4000
2204000,0.0039642556,-0.0047360486,-0.0024160326,4000,0,-0.11197051,0.22358589,-9.961472,4000
2208000,-0.0035146503,-0.0067351316,-0.004294545,4000,0,-0.20800689,0.18060209,-9.950069,4000
2212000,-0.004814899,-0.0068588364,-0.003527062,4000,0,-0.35998258,0.21683593,-9.9935055,4000
2220000,0.0006466769,-0.0056813657,-0.002050417,4000,0,-0.16719526,0.21068464,-9.965802,4000
2224000,0.0012721756,-0.003659732,-0.001846118,4000,0,-0.23230511,0.19745523,-9.953507,4000
2228000,-0.0030005684,-0.00092700793,0.00052576675,4000,0,-0.23885502,0.20250644,-9.905122,4000
2232000,-0.004630029,-0.0015851723,-0.0016472196,4000,0,-0.25623426,0.18769331,-9.933687,4000
2236000,-0.0061296104,-0.0056176386,-0.0049543423,4000,0,-0.31991223,0.21023135,-9.998658,4000
2240000,-0.0045187287,-0.004195639,-0.002981209,4000,0,-0.253691,0.25943556,-9.981639,4000
2248000,0.0019811266,-0.005085377,0.0008107258,4000,0,-0.25328824,0.19757588,-9.897355,4000
2256000,-0.0010696489,-0.0020578415,0.0017825046,4000,0,-0.19806421,0.14876625,-9.975211,4000
2260000,-0.00043195588,-0.0017959276,0.00044495476,4000,0,-0.16118863,0.18826672,-9.9706135,4000
2268000,-0.0019807923,-0.00976752,5.4757817e-07,4000,0,-0.15581495,0.3099598,-9.920972,4000
2272000,-0.0034242147,-0.012325921,0.00089793286,4000,0,-0.26724043,0.27662805,-9.854343,4000
2280000,-0.0034382213,-0.010485287,-0.0020270771,4000,0,-0.19749847,0.22020885,-10.013662,4000
2284000,0.002957733,-0.014155279,-0.003420921,4000,0,-0.17094572,0.191353,-10.040091,4000
2292000,0.0040570972,-0.0006050287,0.0056841094,4000,0,-0.21882099,0.28778705,-9.871732,4000
2300000,-0.0008137908,-0.003750983,-0.0043060873,4000,0,-0.21966963,0.25968397,-9.901055,4000
2304000,-0.0018540081,-0.003635209,-0.0024242369,4000,0,-0.19094399,0.1805673,-9.972885,4000
2312000,0.0034952294,-0.0033153386,-0.0044111554,4000,0,-0.20424314,0.23020187,-9.911902,4000
2316000,0.0018680146,-0.0020424621,-0.0054479335,4000,0,-0.26329586,0.23178743,-9.966444,4000
2320000,-0.0037674124,-0.008290298,0.0033338808,4000,0,-0.322301,0.20347065,-9.9634905,4000
2328000,0.006845728,-0.0053738435,0.00039401493,4000,0,-0.14271817,0.17138374,-9.970421,4000
2332000,-0.0052791312,-0.00871207,-0.0009283767,4000,0,-0.1275321,0.20903587,-9.853248,4000
2336000,-0.004547076,-0.008989919,0.0008313804,4000,0,-0.13410579,0.17487496,-9.852975,4000
2340000,0.0010317963,-0.0082370965,0.0032106095,4000,0,-0.12852429,0.19197169,-9.883653,4000
2344000,-0.0036561252,-0.0031492086,0.004681762,4000,0,-0.16729797,0.20019259,-9.925572,4000
2352000,-0.00773305,-0.009012841,0.0007448393,4000,0,-0.26353505,0.15591331,-9.833876,4000
2356000,-0.0038834086,-0.002183372,0.001602772,4000,0,-0.24941319,0.19027598,-9.860323,4000
2360000,-0.006488268,0.0027218661,-0.008681192,4000,0,-0.19661795,0.21732132,-9.945942,4000
2364000,-0.0058808983,-0.0007342358,-0.0061049303,4000,0,-0.17095158,0.08613796,-9.946655,4000
2368000,-0.0033406988,-0.0045122593,-0.007329493,4000,0,-0.13693699,0.07108064,-9.900296,4000
2372000,-0.0035652672,-0.007114495,-0.008226711,4000,0,-0.13909197,0.1895048,-9.901807,4000
2376000,-0.0021097015,-0.0006158124,0.0030103838,4000,0,-0.21843077,0.12647973,-9.92225,4000
2384000,-0.0040950933,-0.0012869851,0.0023401293,4000,0,-0.14960353,0.17858666,-9.935099,4000
2388000,-0.00714143,-0.0007600452,-0.00087802036,4000,0,-0.1887035,0.19763811,-9.97295,4000
2392000,-0.008279865,-0.001220144,-0.00019671922,4000,0,-0.22782283,0.15213214,-9.987034,4000
2396000,-0.00647278,-0.010978524,0.004071618,4000,0,-0.1856769,0.14733903,-9.959686,4000
2404000,0.0066611995,-0.0013093808,-0.008178367,4000,0,-0.25015736,0.194513,-9.875067,4000
2412000,0.001543566,-0.0047633224,0.0012755913,4000,0,-0.29396337,0.23469366,-9.900036,4000
2416000,0.004917496,-0.0032979331,-0.0033741416,4000,0,-0.26748022,0.23773523,-9.856456,4000
2420000,0.0027579796,-0.0036969013,-0.0035331615,4000,0,-0.24776335,0.20210004,-9.930507,4000
2424000,-0.0011562725,-0.0023526323,0.0018638971,4000,0,-0.17989202,0.13425703,-9.899204,4000
2428000,-0.003031118,-0.005974818,-0.002380598,4000,0,-0.10537286,0.16900778,-9.863112,4000
2432000,0.003348523,-0.009773979,-0.0011172304,4000,0,-0.15446728,0.176273,-9.948397,4000
2436000,0.0038008448,-0.0047706417,0.0002666713,4000,0,-0.21479784,0.18721804,-9.997256,4000
2440000,0.0032145805,0.0025456222,-0.0008610423,4000,0,-0.22924681,0.19644557,-10.018605,4000
2448000,0.004256562,-0.0101404805,-0.0038206128,4000,0,-0.3054921,0.14283681,-9.961485,4000
2452000,-0.0028974973,-0.0069002383,0.00048025095,4000,0,-0.25060531,0.1839921,-9.969352,4000
2456000,-0.0017423701,-0.0035867686,0.00024883682,4000,0,-0.2006168,0.25500005,-9.983116,4000
2460000,-0.005224666,-0.00646892,-0.0054900753,4000,0,-0.22357047,0.25416008,-9.950532,4000
2464000,-0.011359829,-0.0043633273,-0.0052845394,4000,0,-0.24722001,0.21382098,-9.881891,4000
2468000,-0.007389427,-0.013226631,-0.004086548,4000,0,-0.20128971,0.18663432,-9.914147,4000
2476000,-0.0025468552,-0.011348363,0.002820992,4000,0,-0.19767024,0.18588543,-9.916923,4000
2480000,0.00052086735,-0.005083714,0.0044658617,4000,0,-0.20438977,0.21648654,-9.937553,4000
2484000,0.0012406164,-0.00047228677,-0.0009316522,4000,0,-0.20743328,0.14384703,-10.039273,4000
2488000,-0.0042170845,-0.00046663237,0.00050598604,4000,0,-0.19950135,0.17781684,-10.036989,4000
2496000,-0.0022538346,-0.007845619,-0.003996149,4000,0,-0.21849228,0.20735645,-9.914356,4000
2500000,0.0006678922,-0.0010218052,-0.0060815345,4000,0,-0.23223145,0.25836957,-9.972831,4000
2504000,-0.002475794,-0.009438843,-0.005120803,4000,0,-0.21753278,0.20614116,-10.031443,4000
2508000,-0.0036529833,-0.015604909,-0.0035046127,4000,0,-0.21590802,0.23046108,-9.988691,4000
2512000,0.0047478257,-0.010730718,0.0013366617,4000,0,-0.19836418,0.21553752,-9.935276,4000
2516000,0.0040465263,-0.0048249997,0.0051278304,4000,0,-0.15238456,0.13158815,-9.977706,4000
2520000,-0.00043559412,-0.007598831,0.0031049172,4000,0,-0.17212185,0.1376005,-9.962553,4000
2524000,-0.0008737535,-0.009317019,0.00059829565,4000,0,-0.20499466,0.16325456,-9.996646,4000
2532000,0.0059184614,-0.002476915,-0.007020425,4000,0,-0.12613678,0.13533072,-9.968941,4000
2536000,0.0032284649,-0.0014626153,-0.0070690303,4000,0,-0.13949428,0.19798344,-9.929571,4000
2540000,0.00049800496,-0.004127281,0.0010727597,4000,0,-0.2365207,0.22606875,-9.9307165,4000
2544000,0.0007278908,-0.006175577,0.004465329,4000,0,-0.29559788,0.18246111,-9.956175,4000
2548000,-0.00013426432,-0.0023001123,-0.0009378905,4000,0,-0.23749141,0.24668606,-9.930685,4000
2552000,0.0011262225,-0.002055714,-0.0019066908,4000,0,-0.14197013,0.20567591,-9.965075,4000
2556000,0.0022298242,-0.0035510024,0.00062841823,4000,0,-0.17211877,0.113917746,-9.984065,4000
2564000,0.0034185667,-0.007969038,0.0010286369,4000,0,-0.23330048,0.184629,-9.916808,4000
2568000,0.0018564214,-0.0077133127,-0.0025504418,4000,0,-0.19575666,0.17872512,-9.947509,4000
2572000,-0.0012873241,-0.009663753,-0.00275919,4000,0,-0.19122702,0.20060384,-9.964961,4000
2576000,-0.00046600463,-0.0042041917,-0.002217205,4000,0,-0.21185972,0.22628403,-9.935604,4000
2580000,0.00018493865,-0.005472394,-0.0006255362,4000,0,-0.1962587,0.280677,-9.940494,4000
2584000,-0.0021108591,-0.0064184763,0.004123517,4000,0,-0.16417508,0.19731992,-9.997103,4000
2592000,-0.0008992115,-0.0073341755,-0.00060409476,4000,0,-0.27138448,0.26601166,-9.929638,4000
2596000,2.802112e-05,-0.009424459,0.0015762115,4000,0,-0.22377771,0.22860223,-9.968347,4000
2600000,-0.0012428366,-0.006593847,0.00017477141,4000,0,-0.16241266,0.16221489,-9.967736,4000
2604000,-0.0012132538,-0.0031058358,3.067866e-05,4000,0,-0.22380646,0.2006807,-9.965085,4000
2612000,-0.0042398754,0.0012395399,0.0034725775,4000,0,-0.22625473,0.1919424,-9.978399,4000
2616000,0.0026207785,0.0015007763,0.00086647447,4000,0,-0.17812839,0.19704413,-9.944655,4000
2620000,0.004978404,-0.0050446163,-0.0009930906,4000,0,-0.15125675,0.16576248,-9.889275,4000
2624000,-0.0009963419,-0.0050536455,0.002250239,4000,0,-0.19160572,0.17763993,-9.931837,4000
2628000,-0.00097945,-0.005626622,0.00061527546,4000,0,-0.18188235,0.21091433,-10.019025,4000
2632000,0.0011204255,-0.0021404643,-0.0016093465,4000,0,-0.2031252,0.2118798,-9.961333,4000
2636000,0.0010117744,0.0001521431,-0.0014560715,4000,0,-0.23785366,0.17322247,-9.896933,4000
2640000,0.0016990677,-0.0023263704,0.0015584938,4000,0,-0.17570078,0.2033097,-10.006456,4000
2644000,-0.00036940485,-0.0030541748,-0.0021395173,4000,0,-0.13046744,0.22553399,-9.954303,4000
2648000,0.0012338203,-0.0056604417,-0.0043914607,4000,0,-0.17939071,0.20691584,-9.920419,4000
2652000,0.0007444444,-0.005054331,-0.0005625368,4000,0,-0.18890224,0.20455113,-9.939479,4000
2656000,-0.000986529,-0.006209195,-0.0031158302,4000,0,-0.17301658,0.17257959,-9.956221,4000
2660000,-0.0025119174,-0.008083082,-0.0019768588,4000,0,-0.17425258,0.17651713,-9.978394,4000
2664000,-0.005321569,-0.006372012,-0.00013838708,4000,0,-0.14129038,0.19667034,-10.006098,4000
2668000,-0.0032257552,-0.0036339518,-0.0059020827,4000,0,-0.14273295,0.20663409,-9.980759,4000
2672000,0.0024255852,-0.002026906,-0.0056322077,4000,0,-0.20718288,0.16565993,-9.922937,4000
2676000,0.00392633,-0.0056729284,-0.0018715289,4000,0,-0.28242365,0.17402206,-9.955809,4000
2680000,-0.0018447734,-0.008746052,-0.005197868,4000,0,-0.2706697,0.16709971,-9.936778,4000
2684000,-0.0032598448,-0.009625641,-0.0049020797,4000,0,-0.22914423,0.14784165,-9.918274,4000
2688000,0.004789408,-0.00588827,0.0009182139,4000,0,-0.21435365,0.17446305,-9.934587,4000
2692000,-0.0011441796,0.0010272943,0.005987677,4000,0,-0.22225611,0.21090138,-9.97975,4000
2700000,0.0024052523,-0.0027458197,0.0057695922,4000,0,-0.17149149,0.2829959,-9.962331,4000
2704000,-0.00012591691,-0.00037524092,-0.00047934492,4000,0,-0.16561243,0.25877735,-9.91539,4000
2708000,-0.0034517283,-0.0035313533,-0.0024898427,4000,0,-0.23912941,0.2904138,-9.917402,4000
2716000,-0.0029932444,-0.008725401,0.00816157,4000,0,-0.21490975,0.18955156,-9.937362,4000
2720000,-0.0023444614,-0.0019802991,0.008544199,4000,0,-0.20008257,0.18793643,-9.902422,4000
2728000,-0.003619077,0.0043548825,-0.002191626,4000,0,-0.27387038,0.17495121,-9.871142,4000
2732000,-0.005685499,0.0009675061,-0.004668021,4000,0,-0.2054909,0.2093876,-9.874327,4000
2736000,-0.0037776846,0.00091264886,-0.0037030082,4000,0,-0.20005834,0.16510856,-9.909571,4000
2740000,-0.0020181255,-0.003308258,0.0007184168,4000,0,-0.2830827,0.18374053,-9.908381,4000
2748000,0.0023941805,-0.0042655068,-0.003315573,4000,0,-0.17733184,0.16968559,-9.898236,4000
2752000,0.0066075344,-0.0038920084,-1.8361323e-05,4000,0,-0.2465941,0.2344733,-9.951057,4000
2756000,0.00068648014,-0.0026622703,-0.0018886303,4000,0,-0.24345084,0.23231547,-9.99835,4000
2760000,-0.0009804415,-8.952838e-05,-0.0021441125,4000,0,-0.25826833,0.15550545,-10.015344,4000
2764000,0.0033674927,-0.0023614375,-0.0037460232,4000,0,-0.2778627,0.18606529,-9.911377,4000
2772000,-0.0013533928,-0.0070089013,-0.0038003633,4000,0,-0.23897903,0.11944033,-9.912601,4000
2780000,0.0062627997,-0.0039076516,0.0022067397,4000,0,-0.21688287,0.22510338,-9.961636,4000
2784000,0.0060279486,-0.004794912,0.0016852125,4000,0,-0.22548397,0.18349205,-9.952991,4000
2788000,-0.0004515445,-0.007637739,-0.0031740386,4000,0,-0.26494393,0.19689615,-9.99803,4000
2792000,-0.0021290397,-0.004819119,-0.0014943248,4000,0,-0.26722193,0.22316787,-9.999418,4000
2800000,-0.00013408401,-0.011800499,0.003942481,4000,0,-0.1656703,0.1557055,-9.913123,4000
2804000,-0.0037011532,-0.006729479,0.006251862,4000,0,-0.2261388,0.09376885,-9.896064,4000
2808000,-0.0033911716,-0.0060705505,0.0061707417,4000,0,-0.23301351,0.14347921,-9.91164,4000
2812000,-0.0045168246,-0.007710676,-0.0012899353,4000,0,-0.2153789,0.23033914,-9.94569,4000
2816000,-0.004196497,-0.0068236706,-0.0028222168,4000,0,-0.22966038,0.2296504,-9.946322,4000
2820000,-0.0053718234,-0.0076690596,-0.00011910498,4000,0,-0.2249172,0.23550153,-9.880373,4000
2824000,-0.0005120515,-0.0025106664,0.0007078036,4000,0,-0.21613161,0.20214105,-9.908002,4000
2828000,0.008866574,-0.004470824,-0.0065977643,4000,0,-0.21253736,0.12378703,-9.998241,4000
2832000,0.0039519607,-0.011134526,-0.0072887265,4000,0,-0.20073885,0.0706874,-9.954576,4000
2836000,-0.0028737928,-0.009183307,-0.0010054375,4000,0,-0.16125219,0.15487158,-9.968814,4000
2840000,-0.0058624237,-0.0031866354,0.0027002313,4000,0,-0.2307401,0.19678937,-10.003994,4000
2844000,-0.0047257664,0.00076334237,0.008155933,4000,0,-0.29503238,0.21524586,-9.925929,4000
2852000,-0.0030993756,-0.008682521,-0.0053619826,4000,0,-0.16152887,0.26689678,-10.000582,4000
2856000,-0.006834361,-0.008959627,-0.0063771466,4000,0,-0.17053917,0.18576911,-9.979775,4000
2864000,0.00040691008,-0.006862246,0.00015134792,4000,0,-0.1971614,0.22680935,-9.990109,4000
2868000,-0.00074898935,-0.0004574356,-0.00538091,4000,0,-0.28934202,0.17286715,-10.040001,4000
2872000,-0.0029467952,0.0025217815,0.00065088685,4000,0,-0.24771968,0.17118825,-9.948922,4000
2876000,-0.0037790039,-0.005398271,0.007165639,4000,0,-0.1477488,0.21756119,-9.929264,4000
2880000,-0.0027722537,-0.012192811,0.0062873513,4000,0,-0.17618628,0.21717842,-9.981843,4000
2884000,-0.004341016,-0.012239581,0.0027283728,4000,0,-0.2154076,0.20531107,-9.978513,4000
2888000,-0.005507227,-0.006903471,-0.0032079143,4000,0,-0.26990083,0.21770544,-9.951243,4000
2896000,-0.003465488,-0.0011539846,-0.0006660226,4000,0,-0.14507966,0.25913075,-9.925545,4000
2900000,-0.0012177587,-0.0035450945,0.0006894517,4000,0,-0.15962948,0.22396989,-10.017692,4000
2904000,-0.0010380484,-0.008389094,0.0048116622,4000,0,-0.18375608,0.24796511,-10.075249,4000
2908000,-0.0027643524,-4.9821563e-05,0.006766854,4000,0,-0.24020056,0.2712274,-10.012178,4000
2912000,-0.004578028,-0.0063630072,0.0052219112,4000,0,-0.23148458,0.24474204,-9.900071,4000
2920000,0.00093517575,-0.0066647693,0.0020322034,4000,0,-0.23996559,0.15766293,-9.869124,4000
2924000,-0.005803399,-0.006442872,0.00033616883,4000,0,-0.22410026,0.19225535,-9.938719,4000
2928000,-0.004480178,-0.007025221,-0.005646792,4000,0,-0.15522698,0.24672042,-9.97975,4000
2936000,-0.003309603,-0.0024776799,0.003169053,4000,0,-0.22928262,0.23104638,-9.977675,4000
2940000,-0.0025182336,-0.0009933681,0.0040563876,4000,0,-0.24132535,0.21325706,-10.013759,4000
2948000,0.00060496805,-0.00418767,0.0014312638,4000,0,-0.24762575,0.32333007,-9.943009,4000
2952000,-0.0030883974,-0.0039677103,0.002993361,4000,0,-0.21268326,0.22077791,-9.9288,4000
2956000,-0.0030669037,-0.00061750796,0.0008482054,4000,0,-0.15673067,0.12570012,-9.943267,4000
2960000,0.00025896172,-0.0068426854,-0.006122291,4000,0,-0.21060888,0.20121872,-9.974511,4000
2964000,-0.00032383425,-0.010654249,-0.0069797714,4000,0,-0.27381295,0.22565536,-10.010512,4000
2968000,-0.0048385127,-0.00771583,-0.003208242,4000,0,-0.25333154,0.20397605,-9.971541,4000
2972000,-0.0009996053,-0.004215359,0.0004261277,4000,0,-0.26721507,0.18241023,-9.941224,4000
2976000,-0.001751771,-0.0025643301,0.0023267802,4000,0,-0.24868652,0.17928551,-9.954501,4000
2980000,-0.0064311824,-0.004454855,-0.00141006,4000,0,-0.17389253,0.17091502,-9.991762,4000
2984000,-0.003734628,-0.008095419,-0.00021054293,4000,0,-0.19165236,0.17221129,-9.937135,4000
2988000,-0.0037849972,-0.008426228,0.0051538865,4000,0,-0.246034,0.19838202,-9.90513,4000
2992000,-0.0044337003,-0.0061516627,0.0017609143,4000,0,-0.20029534,0.2108273,-9.938591,4000
2996000,-0.0020293149,-0.005928844,-0.0039318316,4000,0,-0.18442658,0.1924978,-9.961435,4000
3004000,-0.0021503363,-0.0009988755,-0.0018122961,4000,0,-0.17268448,0.16969119,-9.902422,4000
3008000,-0.0039896094,-0.0010514169,-0.007578972,4000,0,-0.15695441,0.14692988,-9.971048,4000
3012000,-0.0006276206,-0.005687445,-0.0050073843,4000,0,-0.1589642,0.104893476,-10.042461,4000
3016000,-0.0039013207,-0.005315572,-0.0027253446,4000,0,-0.13556953,0.14002341,-9.97185,4000
3024000,-0.0045298976,-0.0045777736,-0.0016772276,4000,0,-0.19997928,0.21466364,-9.9506445,4000
3028000,-0.0011704885,-0.0031425068,0.0031120898,4000,0,-0.12664814,0.20721509,-9.881061,4000
3032000,-0.006691476,-0.0062268423,0.0027794845,4000,0,-0.12553194,0.16204183,-9.959919,4000
3040000,-0.005157863,-0.0041192505,-0.0011182168,4000,0,-0.28259414,0.2650534,-9.932348,4000
3044000,-0.001828945,4.0023315e-06,-0.0027616932,4000,0,-0.2420644,0.21666789,-9.9721985,4000
3048000,-0.0021294488,-0.004332447,-2.9967163e-05,4000,0,-0.15870103,0.19298063,-9.905623,4000
3052000,-0.0071694884,-0.0054766717,0.0015904736,4000,0,-0.1962873,0.12661609,-9.840958,4000
3060000,-0.00335349,-0.008583988,0.0031444496,4000,0,-0.16109693,0.25442427,-9.878961,4000
3068000,6.4522246e-05,-0.001364833,-0.0042880257,4000,0,-0.19657513,0.18503213,-9.962001,4000
3072000,0.006237986,-0.002746931,-0.0058017634,4000,0,-0.18123247,0.13192996,-9.964735,4000
3076000,-0.0024096973,-0.0026773703,-0.0038278694,4000,0,-0.23050325,0.16317414,-9.996449,4000
3084000,-0.0062466133,-0.012892797,0.0037697968,4000,0,-0.21236622,0.14209335,-9.88409,4000
3092000,0.0041728914,-0.0029836665,-0.0024724535,4000,0,-0.21542652,0.22515091,-9.938705,4000
3096000,0.00453645,-0.0068050837,0.0026116022,4000,0,-0.22525601,0.24985933,-9.956499,4000
3104000,-0.0005090892,-0.016099611,0.001364482,4000,0,-0.25181252,0.22402292,-9.9903,4000
3108000,-0.00493505,-0.0063340585,0.0052519254,4000,0,-0.22313112,0.16795608,-9.931491,4000
3112000,-0.002914247,0.003464865,-0.0014843139,4000,0,-0.1837894,0.14507051,-9.907608,4000
3120000,0.0030803143,-0.011679139,0.004765578,4000,0,-0.23183607,0.25378218,-9.944985,4000
3124000,0.0023479962,-0.009790076,0.00081478537,4000,0,-0.1979397,0.16924442,-10.040805,4000
3128000,-0.0040766443,-0.0037376054,0.00045292967,4000,0,-0.17838804,0.23993528,-9.996077,4000
3132000,-0.007998046,-0.000334048,0.0058599124,4000,0,-0.1549022,0.354916,-9.896165,4000
3136000,0.00026998427,-0.0033995234,-0.0018918188,4000,0,-0.20596357,0.26976666,-9.940034,4000
3140000,0.001992426,-0.008660822,-0.0048028845,4000,0,-0.2299359,0.12384691,-9.957743,4000
3144000,-0.0010512336,-0.007861863,0.003185151,4000,0,-0.20239227,0.18582939,-9.909274,4000
3148000,-0.0043589254,-0.0065864953,0.0024473893,4000,0,-0.24766964,0.21258642,-9.861561,4000
3156000,0.0009362186,-0.0008224871,-0.006059824,4000,0,-0.16222578,0.31538108,-9.868009,4000
3160000,0.0015483674,-0.00057132763,0.0024195355,4000,0,-0.14230889,0.31542498,-9.882777,4000
3164000,0.0012073424,-0.011188541,0.00045212623,4000,0,-0.1511034,0.20984742,-9.912081,4000
3168000,-0.004707472,-0.011238281,-0.006692618,4000,0,-0.19555558,0.19249596,-9.88297,4000
3176000,0.0015465422,-0.007844119,0.0032526867,4000,0,-0.23083298,0.12084685,-9.915895,4000
3180000,0.002465782,-0.007473891,0.002384661,4000,0,-0.24975461,0.20706256,-9.889577,4000
3184000,0.00073005614,-0.0023373854,-0.0016675347,4000,0,-0.23047434,0.16551635,-9.863111,4000
3192000,-0.0005782638,-0.006970773,-0.001045501,4000,0,-0.23094667,0.22618273,-9.9188,4000
3196000,-0.00075149664,-0.012313335,-0.0026216006,4000,0,-0.2479319,0.16992255,-9.902871,4000
3200000,-8.419215e-05,-0.007255642,0.0013216343,4000,0,-0.30324233,0.15933561,-9.91757,4000
3204000,-0.0013889145,0.00041230727,-0.0014526385,4000,0,-0.22199473,0.13523196,-9.946769,4000
3208000,-0.0029683379,-0.0011965779,-0.006343351,4000,0,-0.1909288,0.1632926,-9.93219,4000
3212000,-0.0036999187,-0.006779323,-0.0013442859,4000,0,-0.256561,0.22800756,-9.888847,4000
3216000,-0.002742038,-0.009686844,0.0021078533,4000,0,-0.2559868,0.1692133,-9.952446,4000
3220000,-0.0035209025,-0.009882056,0.00020216902,4000,0,-0.22601554,0.14039586,-9.946684,4000
3228000,0.0019167,0.0013177448,0.0052445363,4000,0,-0.1642191,0.17112792,-9.974137,4000
3232000,-0.0017889676,0.0031924897,0.004126585,4000,0,-0.17499277,0.18110342,-9.922868,4000
3236000,-0.000989811,-0.003160315,-0.0012478484,4000,0,-0.20927027,0.19740117,-9.878666,4000
3240000,-0.0003240516,-0.0033693262,-0.0035487749,4000,0,-0.18853822,0.19416915,-9.969738,4000
3244000,-0.0011920966,-0.0028159944,0.0008267807,4000,0,-0.23909593,0.20507663,-9.974664,4000
3248000,0.0016721014,-0.0024366954,0.004751838,4000,0,-0.28156528,0.22154884,-9.925646,4000
3252000,-0.0024123618,-0.005738177,0.0037204728,4000,0,-0.1821943,0.24431092,-9.960422,4000
3256000,-0.0059903767,-0.015476757,0.0026366205,4000,0,-0.13983479,0.26500157,-9.983849,4000
3260000,-0.0061374838,-0.01224252,0.00026198363,4000,0,-0.17753835,0.23469965,-9.9974,4000
3268000,-0.004379212,-0.010287371,-5.6459423e-05,4000,0,-0.17799577,0.23550962,-9.867976,4000
3272000,-0.0029045516,-0.007179757,-0.0015591063,4000,0,-0.24106981,0.213545,-9.9253235,4000
3280000,-0.0074059707,-0.011462449,0.0055350014,4000,0,-0.18899857,0.22482018,-9.920052,4000
3288000,-0.0052492553,-0.0025775407,-0.002880411,4000,0,-0.23965934,0.18592905,-9.981771,4000
3292000,-0.00331814,-0.007146413,-0.0042941445,4000,0,-0.25603715,0.16342376,-10.033015,4000
3296000,-0.00030784358,-0.007682311,-0.00061169936,4000,0,-0.27607557,0.2586357,-9.996527,4000
3304000,-0.0055676275,-0.00045613767,0.0040641874,4000,0,-0.24025111,0.1115301,-10.003526,4000
3308000,-0.008501707,-0.010751754,0.0056522405,4000,0,-0.24285081,0.18833442,-9.962803,4000
3316000,0.00035737216,-0.0056269555,-0.003829662,4000,0,-0.18766376,0.23370332,-9.954915,4000
3320000,-0.0041014673,-0.008317285,-0.0053593614,4000,0,-0.17375435,0.1495652,-9.945128,4000
3324000,0.0012923073,-0.00082750915,-0.0048554926,4000,0,-0.1934828,0.14591792,-9.902622,4000
3328000,0.0048970995,-0.0005546184,-0.00084860186,4000,0,-0.24515088,0.18938684,-9.917849,4000
3336000,-0.0042640315,-0.0050449944,-0.00064307667,4000,0,-0.19336435,0.25670224,-10.037543,4000
3340000,-0.0033693262,-0.004466256,0.0067155715,4000,0,-0.20971178,0.21474734,-9.992297,4000
3344000,-0.0050380635,-0.0025873517,0.005604388,4000,0,-0.1925959,0.20062816,-9.914278,4000
3348000,-0.002297364,4.6982368e-05,0.00072247075,4000,0,-0.21420445,0.12687871,-9.932668,4000
3352000,0.00032942675,-0.0036531363,0.0037114152,4000,0,-0.18585381,0.15869103,-9.950772,4000
3356000,-0.00074268685,-0.006822288,0.0029374135,4000,0,-0.14598387,0.17904447,-9.900943,4000
3360000,0.00080812245,-0.005995836,-0.0017979745,4000,0,-0.20506373,0.1608518,-9.889783,4000
3364000,-0.0031637263,-0.0025668426,0.00039277857,4000,0,-0.20589821,0.20683745,-9.891981,4000
3368000,-0.005984116,-0.005312476,0.003489199,4000,0,-0.27598816,0.17330004,-9.997238,4000
3376000,-0.00058185495,-0.015107041,-0.0028296611,4000,0,-0.23036502,0.17692524,-9.857279,4000
3384000,-0.0016063185,-0.008995654,-0.0039857198,4000,0,-0.2791647,0.25239462,-9.965831,4000
3388000,-0.0031249982,-0.0095378915,-0.002037891,4000,0,-0.20571686,0.25450987,-9.923068,4000
3396000,-0.008750896,-0.003203144,-0.0017464895,4000,0,-0.23486789,0.21994722,-9.899413,4000
3400000,-0.001957311,-0.008249338,0.0017728973,4000,0,-0.23262076,0.19840091,-9.908246,4000
3404000,-0.0018866125,-0.002812985,0.0013409499,4000,0,-0.22597334,0.22314799,-9.925128,4000
3408000,-0.00506758,-0.0044322247,-0.0051252316,4000,0,-0.22181043,0.24865885,-9.9865885,4000
3412000,0.00043588065,-0.0076088286,-0.0018450723,4000,0,-0.26886228,0.25692,-9.930838,4000
3420000,-0.0005132897,-0.008461999,-0.003681181,4000,0,-0.17295693,0.2501856,-9.938901,4000
3424000,-0.0035881042,-0.0076432806,-0.0020581195,4000,0,-0.25208485,0.211422,-9.908157,4000
3428000,0.006866971,-0.009973258,0.00038802906,4000,0,-0.22423194,0.15447462,-9.837925,4000
3432000,-0.00092200114,-0.00933083,0.0020815332,4000,0,-0.19584048,0.19714461,-9.848775,4000
3436000,-0.007514251,-0.012870229,-0.0013113798,4000,0,-0.17400187,0.2451056,-9.885194,4000
3440000,-0.0011217096,-0.012860153,-0.00086357206,4000,0,-0.14860794,0.20018439,-9.928167,4000
3444000,-0.0010283812,-0.0063838474,0.00283188,4000,0,-0.21825258,0.16270001,-9.957419,4000
3448000,-0.0026221576,-0.009676749,0.004037506,4000,0,-0.23609206,0.1983322,-9.971229,4000
3456000,0.0067456425,-0.0075127087,-0.0006315819,4000,0,-0.23794018,0.10547653,-9.930045,4000
3460000,0.001491219,-0.013755665,-0.0015572623,4000,0,-0.19354169,0.14715785,-9.935157,4000
3464000,0.0013194941,-0.010711701,-0.0015112843,4000,0,-0.18417993,0.22190265,-9.936389,4000
3468000,0.00049567624,-0.009826613,-0.0067312582,4000,0,-0.28321168,0.16224892,-9.928578,4000
3472000,8.758181e-05,-0.005759531,-0.0056153773,4000,0,-0.26790118,0.13452388,-9.918355,4000
3476000,0.0022549026,-0.007708121,0.0001860288,4000,0,-0.23818424,0.19910203,-9.916631,4000
3480000,0.0011482183,-0.010045964,0.003592679,4000,0,-0.20337963,0.2023093,-9.903878,4000
3484000,0.00021636851,-0.004827943,0.0009850898,4000,0,-0.1480552,0.18427788,-9.916313,4000
3488000,-0.0026471135,-0.008363015,-0.002885278,4000,0,-0.19887958,0.18857275,-9.883807,4000
3492000,-0.0014199463,-0.009830384,-0.0024111478,4000,0,-0.23473458,0.1871306,-9.950218,4000
3500000,-0.005609654,-0.010401152,0.0010143123,4000,0,-0.29039988,0.22832935,-9.9505205,4000
3504000,0.0016053404,-0.010924441,0.004076887,4000,0,-0.19390197,0.25184655,-9.964464,4000
3508000,0.00018338396,-0.010702896,0.0043713883,4000,0,-0.20069546,0.19096725,-9.869897,4000
3512000,-0.0016165159,-0.011960893,0.0011562861,4000,0,-0.2166156,0.18540892,-9.824569,4000
3516000,-0.0025091835,-0.0070832404,0.0005144771,4000,0,-0.18597901,0.28066126,-9.866451,4000
3524000,-0.0016771986,-0.00066652964,0.0010968975,4000,0,-0.21526833,0.18708281,-9.921024,4000
3528000,-0.0021373522,0.00015625774,-0.00038717675,4000,0,-0.14221391,0.124049515,-9.902758,4000
3532000,-0.0009926445,-0.004995846,-0.00067660067,4000,0,-0.22975963,0.17692289,-9.928006,4000
3536000,0.00058422156,-0.0077686156,-0.0026109677,4000,0,-0.24805151,0.2596901,-9.890883,4000
3540000,-0.00017080396,-0.0050452766,-0.0006229254,4000,0,-0.25302705,0.26541185,-9.878331,4000
3544000,-0.006917539,-0.0034237416,-0.0012917607,4000,0,-0.213629,0.1836087,-9.891967,4000
3548000,-0.005618461,-0.005569705,-0.0038163804,4000,0,-0.16869487,0.1861943,-9.916355,4000
3556000,-0.0030872659,-0.0055161053,-0.0026537075,4000,0,-0.25450903,0.22870061,-10.009126,4000
3560000,-0.002247068,-0.006157117,-0.0015399047,4000,0,-0.18843074,0.15843205,-10.030246,4000
3568000,-0.003916737,-0.0051617725,0.004448848,4000,0,-0.21425125,0.16813111,-9.876388,4000
3572000,-0.008253939,-0.006338268,-0.0006116787,4000,0,-0.22985338,0.21791017,-9.844792,4000
3576000,-0.004864096,-0.0041919583,-0.0063147563,4000,0,-0.1988958,0.24753381,-9.907875,4000
3580000,0.0011312406,-0.009625657,-0.00047706362,4000,0,-0.1808767,0.2119167,-9.92243,4000
3584000,-0.0007543227,-0.012302858,0.00034304213,4000,0,-0.22291568,0.20682862,-9.888862,4000
3588000,-0.009087489,-0.011409618,0.0058122207,4000,0,-0.22322951,0.17229728,-9.841731,4000
3592000,-0.005146648,-0.004735867,0.0026125067,4000,0,-0.22888954,0.15244216,-9.904794,4000
3596000,-0.00082838384,-0.004922473,-0.005090319,4000,0,-0.30127934,0.1711283,-9.957279,4000
3600000,0.0025694822,-0.008652194,-0.0032418862,4000,0,-0.23475485,0.19176884,-9.910987,4000
3608000,-0.006890409,-0.011187001,-0.0075411145,4000,0,-0.23983051,0.13026543,-9.902117,4000
3612000,-0.010393371,0.0022978142,-0.0029570532,4000,0,-0.25297105,0.15280327,-9.938747,4000
3616000,-0.0064922404,0.0019224618,-0.0045338427,4000,0,-0.2827372,0.18408903,-9.929308,4000
3620000,0.0037336678,-0.0042901896,-0.00038964205,4000,0,-0.29467094,0.18751715,-9.935907,4000
3624000,0.005297821,-0.0076955203,0.0044214656,4000,0,-0.18634394,0.15461555,-9.863097,4000
3632000,-0.007416989,-0.0067879306,-0.0019427324,4000,0,-0.18423918,0.20515558,-9.927815,4000
3636000,-0.0036521666,-0.004566126,-0.0017435258,4000,0,-0.17681885,0.21878086,-9.921757,4000
3640000,0.0016494417,-0.008146177,-0.0019410749,4000,0,-0.124561615,0.21469603,-9.941956,4000
3648000,-0.005746409,-0.003817459,0.0075749294,4000,0,-0.23493637,0.21697941,-9.89884,4000
3652000,-0.0045154393,-0.0039313976,0.0027176526,4000,0,-0.2447963,0.19566712,-9.932801,4000
3656000,-0.002562369,-0.004186258,-0.0013973046,4000,0,-0.21324852,0.16991705,-9.98211,4000
3660000,-0.0025431118,-0.006323383,-0.0030111526,4000,0,-0.31221542,0.13563438,-10.028296,4000
3664000,-0.0005046251,-0.012403873,6.4290485e-05,4000,0,-0.3085514,0.17799772,-9.9900055,4000
3668000,0.0019353401,-0.012944039,0.00062990974,4000,0,-0.21008445,0.18851897,-9.970313,4000
3672000,0.0018770952,-0.011791725,0.0015886822,4000,0,-0.10104527,0.20723961,-9.993567,4000
3676000,-0.00016288817,-0.0030064974,0.007829173,4000,0,-0.123356424,0.23612644,-9.939697,4000
3684000,-0.0041604023,-0.008597412,-0.001194481,4000,0,-0.22598977,0.16044553,-9.969138,4000
3688000,-0.0031759364,-0.005387522,-0.00064577063,4000,0,-0.21281068,0.1568798,-9.985115,4000
3692000,0.0008057751,-0.005246771,0.0015037287,4000,0,-0.17862305,0.16259167,-9.976906,4000
3696000,-0.0005063705,-0.0030156998,-0.00037076257,4000,0,-0.20648117,0.15681507,-9.969768,4000
3704000,0.003667618,-0.010360092,-0.0013934646,4000,0,-0.2107085,0.22238903,-9.911541,4000
3712000,0.001440649,-0.005437517,0.0030628652,4000,0,-0.24979559,0.27395537,-9.865913,4000
3716000,-0.00056934345,-0.0090929,0.00611107,4000,0,-0.23414202,0.31002295,-9.911969,4000
3724000,0.004003272,-0.0106456755,5.4450404e-05,4000,0,-0.300105,0.17499785,-9.97878,4000
3728000,0.007673261,-0.0075353007,0.0054586884,4000,0,-0.19696543,0.17296009,-9.929796,4000
3736000,0.00027219456,-0.0048428182,0.0010023296,4000,0,-0.2448218,0.13844952,-9.919005,4000
3740000,0.0005381402,0.0024032905,0.0051792907,4000,0,-0.26172614,0.2267871,-9.865744,4000
3744000,-0.003984547,-0.0010630761,-0.003970986,4000,0,-0.24102509,0.2453496,-9.9512005,4000
3748000,-0.0023409133,-0.008552484,-0.006231906,4000,0,-0.2352566,0.2339727,-9.960778,4000
3756000,-0.0045712497,-0.011247423,0.001758278,4000,0,-0.2313702,0.16224697,-9.859086,4000
3760000,0.0016484006,-0.010451896,0.00962043,4000,0,-0.23663393,0.20667711,-9.896445,4000
3764000,-0.00036741464,-0.00643686,0.0053740223,4000,0,-0.20716566,0.20644267,-9.979834,4000
3768000,-0.0056290682,-0.0036767386,-0.0023214424,4000,0,-0.24510594,0.22820328,-10.009722,4000
3772000,-0.00017367191,-0.0052428907,-0.0013894049,4000,0,-0.2617902,0.20685443,-9.9609995,4000
3776000,0.0005593491,-0.008110432,0.000750952,4000,0,-0.2197984,0.16061004,-9.924195,4000
3780000,0.0016857581,-0.0046920395,0.0004547124,4000,0,-0.23828901,0.23753794,-9.926186,4000
3784000,0.00059869833,-0.007949406,-0.00361951,4000,0,-0.24735403,0.24163045,-9.94944,4000
3788000,-0.007142882,-0.008232705,-0.0022059737,4000,0,-0.21118785,0.20766081,-9.954421,4000
3792000,-0.0057079843,-0.007225869,0.001752696,4000,0,-0.17048608,0.2445679,-9.928275,4000
3796000,-0.0035624166,-0.007915711,-0.0011629609,4000,0,-0.24953142,0.26611722,-9.951888,4000
3800000,-0.0014929383,-0.007576346,-0.0018508491,4000,0,-0.2995673,0.20863383,-9.9509,4000
3808000,-0.0019406957,-0.005415601,0.0022655686,4000,0,-0.22012313,0.13325356,-9.815114,4000
3812000,-0.0056972643,-0.0020105909,-6.031987e-05,4000,0,-0.27113065,0.19623643,-9.880167,4000
3816000,-0.0066675474,-0.0020511998,0.0034619088,4000,0,-0.26453367,0.22904418,-9.920011,4000
3820000,-0.0005053141,-0.0054582767,0.006999798,4000,0,-0.25049856,0.17994031,-9.913854,4000
3824000,-0.0014898204,-0.0055191233,5.7429866e-06,4000,0,-0.2636778,0.13072279,-9.90897,4000
3828000,-0.0044633877,-0.0064303596,-0.002927044,4000,0,-0.22492398,0.20130694,-9.872691,4000
3836000,0.007453965,-0.005330584,-0.0021228963,4000,0,-0.24869433,0.24611777,-9.93563,4000
3840000,-0.00072014675,0.00317701,-0.0040057157,4000,0,-0.27664652,0.17923318,-9.966502,4000
3848000,-0.0031993245,-0.013097209,-0.0021116855,4000,0,-0.23980106,0.15900049,-9.96345,4000
3852000,-0.0015690398,-0.004771742,0.0013010515,4000,0,-0.2660243,0.18013889,-10.000187,4000
3856000,0.0008028373,-0.009637975,-0.0031951007,4000,0,-0.25596473,0.20055617,-9.918592,4000
3860000,0.0031507604,-0.011695202,-0.003979151,4000,0,-0.27357784,0.19773594,-9.868375,4000
3868000,-0.005440216,-0.0068756887,-0.009315911,4000,0,-0.2561171,0.2582412,-9.915353,4000
3872000,-0.009942511,-0.0016712095,-0.005342899,4000,0,-0.2199643,0.23235148,-9.914472,4000
3880000,-0.008087813,-0.002269017,-0.0065437527,4000,0,-0.1954078,0.16466938,-9.961236,4000
3884000,-0.007679212,-0.004250975,-0.0024779409,4000,0,-0.26117462,0.15340114,-9.858276,4000
3888000,-0.00766495,-0.0046267537,-0.0006639156,4000,0,-0.25778562,0.15606236,-9.945906,4000
3896000,-0.0006057444,-0.003269939,0.0016935319,4000,0,-0.18204264,0.17286234,-9.953778,4000
3900000,0.002255876,-0.011937554,0.0048474465,4000,0,-0.26254424,0.14826761,-9.947109,4000
3904000,-0.0039124726,-0.009640052,0.0017788946,4000,0,-0.2604934,0.21775039,-9.929778,4000
3908000,-0.008978501,-0.006038798,-0.0024337065,4000,0,-0.19670719,0.31623966,-10.012531,4000
3912000,-0.007416107,-0.0022739004,-0.008090658,4000,0,-0.19321434,0.2865911,-9.993722,4000
3916000,-0.0049375608,-0.0037127263,-0.006754241,4000,0,-0.19130403,0.2581804,-9.934502,4000
3924000,0.003062662,-0.0032710612,0.005626604,4000,0,-0.27708706,0.23821132,-9.933062,4000
3928000,0.002762648,-0.0075102975,0.004118921,4000,0,-0.20566198,0.22601427,-9.894935,4000
3936000,-0.00397089,-0.003556866,0.0026461221,4000,0,-0.21601231,0.18441848,-9.913197,4000
3940000,0.00038980183,-0.010191231,0.0024470778,4000,0,-0.18122026,0.17708096,-9.913819,4000
3944000,0.004216501,-0.012947385,0.003185974,4000,0,-0.19116156,0.17607726,-9.923787,4000
3948000,0.0015059416,-0.01470429,0.004495164,4000,0,-0.17877232,0.17685135,-9.928787,4000
3952000,-0.007059154,-0.009596556,0.00015986257,4000,0,-0.22331104,0.22743215,-9.925425,4000
3956000,-0.008310055,0.0017309764,-0.0034950934,4000,0,-0.30538228,0.2383725,-9.993189,4000
3964000,0.0017781454,-0.008108081,-5.5154822e-05,4000,0,-0.24578866,0.22598784,-9.85829,4000
3968000,0.002726623,-0.0058007888,0.0051621995,4000,0,-0.24541788,0.1907496,-9.848813,4000
3972000,0.0012760882,-0.0012414797,0.004390719,4000,0,-0.28384197,0.20921043,-9.882337,4000
3976000,-0.0047269575,-0.0021681134,0.002179831,4000,0,-0.2684032,0.24982367,-9.921187,4000
3980000,-0.00318945,-0.008872295,0.0041277595,4000,0,-0.16840282,0.2659353,-9.973228,4000
3984000,-0.009097784,-0.014216543,0.0044569,4000,0,-0.12658012,0.22749765,-9.948613,4000
3988000,-0.009678286,-0.008614015,0.0025220306,4000,0,-0.21714815,0.1825871,-9.881924,4000
3992000,-0.001285945,-0.0007687487,-0.0046796054,4000,0,-0.21252206,0.16597897,-9.840784,4000
3996000,0.0005546816,-0.0034473508,-0.0012924054,4000,0,-0.18541357,0.1640577,-9.895479,4000
4004000,-0.00036205526,-0.0055930433,0.004302976,4001,0,-0.1889792,0.18415417,-9.969345,4001
4012000,-0.0065651997,-0.0041852538,0.0016862627,4001,0,-0.18235013,0.23357967,-9.863224,4001
4015999,0.002577996,-0.006079762,0.0003417883,3999,0,-0.22049087,0.20274189,-9.918236,3999
4020000,0.0033659115,-0.008698145,-0.0010886654,4001,0,-0.16787905,0.17730874,-9.999804,4001
4023999,0.00044122906,-0.007980252,4.184326e-05,3999,0,-0.18673599,0.19645983,-9.956135,3999
4028000,0.0007192004,-0.005936056,0.0025503116,4001,0,-0.20443754,0.14947885,-9.917797,4001
4031999,0.0013680103,-0.007168006,-0.0013814493,3999,0,-0.24146332,0.1148519,-9.904366,3999
4036000,0.0014237559,-0.004490831,-0.005486045,4001,0,-0.23927584,0.14872125,-9.9281845,4001
4044000,-0.0019498882,-0.006602856,-0.0019142232,4001,0,-0.20035973,0.20041335,-9.939725,4001
4047999,-0.0058757667,0.00018427373,-4.98781e-05,3999,0,-0.19350663,0.18824883,-9.9359255,3999
4052000,-0.0006247622,-0.0045114635,-0.003471313,4001,0,-0.19986475,0.24336335,-9.937931,4001
4060000,-0.007097877,-0.009828151,0.001894616,4001,0,-0.2626438,0.26209185,-9.875554,4001
4063999,-0.0051308735,-0.010577796,-0.0016396175,3999,0,-0.30833685,0.20835015,-9.960596,3999
4071999,0.0034534244,-0.006417327,0.0007376508,3999,0,-0.176307,0.23037288,-9.934574,3999
4076000,0.0025236995,-0.009344031,-0.0001570378,4001,0,-0.21707657,0.2140814,-9.957977,4001
4079999,0.00087581703,-0.008368088,0.004799181,3999,0,-0.22991309,0.15670691,-9.953757,3999
4084000,0.007173733,-0.006517456,0.0033793822,4001,0,-0.19434257,0.1625205,-9.903905,4001
4087999,0.0064469078,-0.0077839103,-0.008483818,3999,0,-0.2131922,0.17388329,-9.934358,3999
4092000,-0.0021430731,-0.005329334,-0.0052642645,4001,0,-0.2771548,0.18012923,-9.942001,4001
4095999,-0.0014323818,-0.0059461575,-0.0006714118,3999,0,-0.21163751,0.22108328,-9.919962,3999
4103999,-0.00073810725,-0.008373395,-0.0002688261,3999,0,-0.25351867,0.2542261,-9.999623,3999
4108000,0.0013592998,-0.011231239,0.002701411,4001,0,-0.27327335,0.23859185,-9.987296,4001
4111999,0.00013737401,-0.006538832,0.000987119,3999,0,-0.29215738,0.16939902,-9.994007,3999
4116000,-0.00033900345,-0.0039896886,0.001545757,4001,0,-0.30787238,0.14218345,-9.969908,4001
4119999,-0.001511277,-0.0041666934,0.0036278714,3999,0,-0.2738114,0.1881487,-9.922119,3999
4127999,0.0044089374,-0.007449833,-0.003326398,3999,0,-0.18454045,0.1813495,-9.889025,3999
4132000,-0.0010344975,-0.00945388,-0.0015003317,4001,0,-0.22737932,0.1661645,-9.925949,4001
4135999,0.0036284465,-0.012566426,0.003711051,3999,0,-0.2343182,0.16439906,-9.926362,3999
4140000,0.0023304739,-0.0065185893,0.0046088193,4001,0,-0.22977641,0.16909717,-9.917079,4001
4143999,-0.0029599154,-0.005191788,-0.0007933201,3999,0,-0.22609916,0.17898321,-9.937776,3999
4151999,-0.006305874,-0.009700517,-0.005203435,3999,0,-0.23152784,0.193478,-9.884905,3999
4156000,0.00016993236,-0.009691766,-0.0030341402,4001,0,-0.1410229,0.19316852,-9.980534,4001
4164000,0.0012909814,-0.0027487294,0.0011950191,4001,0,-0.21612313,0.22037387,-9.922584,4001
4167999,-0.0029751363,-0.00620958,-0.0019389266,3999,0,-0.23350354,0.14168264,-9.955296,3999
4175999,-0.007399975,-0.0019072912,-0.0019796896,3999,0,-0.21040812,0.18030941,-9.91354,3999
4180000,-0.01104696,-0.006362423,-0.0030315095,4001,0,-0.12620135,0.2563652,-9.916067,4001
4183999,-0.007788588,-0.0078006745,-0.002164301,3999,0,-0.10370161,0.23828337,-9.943405,3999
4188000,-0.0049652746,-0.004945629,-0.0036288665,4001,0,-0.16405036,0.18724751,-9.9701605,4001
4192000,-0.006150075,-0.0005644232,-0.0030499406,4000,0,-0.22041363,0.15929672,-9.964942,4000
4200000,-0.005174174,-0.006649948,-0.00019328893,4000,0,-0.18982668,0.21883999,-9.916252,4000
4204000,-0.0024640786,-0.0047006677,0.00074580766,4000,0,-0.17783147,0.25234127,-10.003499,4000
4208000,-0.0008000888,-0.0075239944,0.0036529754,4000,0,-0.23599298,0.20601967,-9.95008,4000
4212000,-0.004303175,-0.009468352,0.004906521,4000,0,-0.25384083,0.15236008,-9.845749,4000
4216000,0.00067880034,-0.01045696,0.0022347744,4000,0,-0.22900818,0.16641009,-9.826718,4000
4220000,-0.0026381856,-0.009627109,0.0047776927,4000,0,-0.20444162,0.16836603,-9.882797,4000
4228000,0.004413493,-0.009388483,9.54363e-05,4000,0,-0.19678286,0.21369617,-9.976094,4000
4236000,-0.003703023,-0.003133076,0.0061535896,4000,0,-0.23047675,0.09689526,-9.998494,4000
4240000,-0.006190844,-0.0036280605,0.00022256869,4000,0,-0.18680769,0.19261384,-9.980414,4000
4244000,-0.0039890367,-0.008631953,-0.0049331863,4000,0,-0.21052699,0.26110718,-9.89013,4000
4248000,-0.0055791307,-0.010956023,0.00077106577,4000,0,-0.24582306,0.22986569,-9.867755,4000
4256000,-0.0032937515,-0.0039763832,-0.0006374039,4000,0,-0.266814,0.19265947,-9.981811,4000
4260000,0.0038271523,-0.0006526483,-0.0044724257,4000,0,-0.24901794,0.12773234,-10.002688,4000
4268000,-0.00036231475,-0.0067440975,-0.00252967,4000,0,-0.26118606,0.21596654,-9.91286,4000
4272000,0.0022921816,-0.005303453,-0.0018810678,4000,0,-0.2623628,0.22590761,-9.875597,4000
4276000,-0.0033940065,-0.0061215195,-0.002165262,4000,0,-0.27869606,0.19685806,-9.937514,4000
4280000,-0.0067389086,-0.0045436462,-0.00077947276,4000,0,-0.22946769,0.19570866,-9.921303,4000
4284000,-0.0010080064,-0.0057500037,0.0038488861,4000,0,-0.21081609,0.2786066,-9.95029,4000
4288000,-0.0005433356,-0.008023412,0.004090611,4000,0,-0.27040488,0.24055275,-9.997164,4000
4292000,6.757795e-06,-0.0017044015,-0.0014386362,4000,0,-0.24167936,0.16732569,-9.891533,4000
4296000,0.0040250123,-0.0015033848,0.0011513161,4000,0,-0.19364783,0.1647748,-9.876167,4000
4300000,0.00057705434,-0.0070584095,0.0030618804,4000,0,-0.22196676,0.15245734,-9.915235,4000
4304000,-0.003552999,-0.0035487239,-0.0025527799,4000,0,-0.20358336,0.11528367,-9.940262,4000
4308000,0.00018322363,0.0009963186,-0.0027198931,4000,0,-0.21799184,0.13512914,-9.951269,4000
4316000,-0.00047375378,-0.00784649,0.002507253,4000,0,-0.24721454,0.15857355,-9.956958,4000
4324000,-0.0061096996,-0.007228481,0.0036893075,4000,0,-0.20693918,0.24006954,-9.986013,4000
4332000,0.0011223289,-0.011363656,0.0017417342,4000,0,-0.23760557,0.1880336,-9.865155,4000
4340000,-0.0036528555,-0.007716689,0.009885513,4000,0,-0.198878,0.08811666,-9.955681,4000
4344000,0.004013999,-0.000604525,0.006378823,4000,0,-0.23334555,0.1138872,-9.907471,4000
4348000,-0.001075509,-0.0042514824,0.003263987,4000,0,-0.21814287,0.18662097,-9.875864,4000
4352000,-0.0069832043,-0.008212279,0.0003522982,4000,0,-0.17104238,0.18328246,-9.8947735,4000
4360000,-0.00076173205,-0.010286032,0.008627219,4000,0,-0.24801001,0.14567736,-9.8769455,4000
4364000,-0.0010563738,-0.0105752675,0.0014226898,4000,0,-0.18240826,0.25333005,-9.848712,4000
4372000,-0.0031209108,-0.0050623454,0.0021113213,4000,0,-0.11810565,0.2712905,-10.014796,4000
4376000,-0.00195466,-0.0041396883,0.0032493416,4000,0,-0.13354483,0.2874218,-10.031485,4000
4380000,-0.0011167087,-0.005592702,0.012625848,4000,0,-0.24053031,0.16077894,-9.956593,4000
4384000,0.0002016301,-0.014310121,0.007743122,4000,0,-0.26446244,0.14283264,-9.938405,4000
4388000,-0.0031573218,-0.0095745195,-0.002982496,4000,0,-0.21384121,0.16361134,-9.946905,4000
4396000,-0.0035294124,-0.0025498052,0.0041134767,4000,0,-0.22997458,0.18401672,-9.997582,4000
4400000,-0.0018299274,-0.006564133,0.0026079046,4000,0,-0.23213175,0.16810842,-9.915446,4000
4404000,-0.0010489814,-0.0075010504,-0.0026448907,4000,0,-0.23344715,0.11878677,-9.860735,4000
4412000,-0.002075657,-0.007737567,0.001570214,4000,0,-0.16969055,0.13353074,-9.8988285,4000
4416000,-0.006528289,-0.00431959,0.005736391,4000,0,-0.2614392,0.19939904,-9.953231,4000
4420000,-0.0012178373,-0.0049319905,0.010225281,4000,0,-0.3010373,0.19336483,-9.995131,4000
4424000,0.0037374257,-0.0060063484,0.0072723455,4000,0,-0.2693497,0.18689528,-9.952806,4000
4428000,-0.0011230496,-0.009141453,0.008110914,4000,0,-0.2980831,0.23646693,-9.965008,4000
4432000,0.003753478,-0.01456466,0.008219805,4000,0,-0.2870657,0.15497406,-9.996635,4000
4436000,0.0014415804,-0.012461528,-0.0022781305,4000,0,-0.23369412,0.12837136,-10.020072,4000
4440000,-0.0044140033,-0.010640376,-0.005371782,4000,0,-0.19224387,0.23241808,-9.901217,4000
